{"places":[{"id":"QAHIRA_312E300N_S","name":"al-Qāhiraŧ","nameAr":"القاهرة","search":"Qahira, Cairo","lng":31.2357,"lat":30.0444,"type":"metropoles","region":"Misr_RE","cornuData":"Cairo"},{"id":"IRBIL_440E361N_S","name":"Irbīl","nameAr":"إربيل","search":"Irbil, Erbil","lng":44.0091,"lat":36.1912,"type":"towns","region":"Aqur_RE","cornuData":"Irbil"},{"id":"DANIYA_001E388N_S","name":"Dāniyaŧ","nameAr":"دانية","search":"Daniya, Dénia","lng":0.1051,"lat":38.8388,"type":"towns","region":"Andalus_RE","cornuData":"Dénia"},{"id":"WASHQA_003W421N_R","name":"Wašqaŧ","nameAr":"وشقة","search":"Washqa","lng":-0.3537,"lat":42.1611,"type":"regions","region":"Andalus_RE","cornuData":"Wašqaŧ"},{"id":"WASHQA_003W421N_S","name":"Wašqaŧ","nameAr":"وشقة","search":"Washqa","lng":-0.3537,"lat":42.1611,"type":"towns","region":"Andalus_RE","cornuData":"Wašqaŧ"},{"id":"BALANSIYYA_004W394N_R","name":"Balansiyyaŧ","nameAr":"بلنسية","search":"Balansiyya","lng":-0.4149,"lat":39.4352,"type":"regions","region":"Andalus_RE","cornuData":"Balansiyyaŧ"},{"id":"BALANSIYYA_004W394N_S","name":"Balansiyyaŧ","nameAr":"بلنسية","search":"Balansiyya","lng":-0.4149,"lat":39.4352,"type":"towns","region":"Andalus_RE","cornuData":"Balansiyyaŧ"},{"id":"SHAQR_004W391N_S","name":"al-Šaqr","nameAr":"الشقر","search":"al-Shaqr","lng":-0.4373,"lat":39.1648,"type":"villages","region":"Andalus_RE","cornuData":"al-Šaqr"},{"id":"QANT_004W383N_S","name":"Qānt","nameAr":"قانت","search":"Qant","lng":-0.4706,"lat":38.3462,"type":"towns","region":"Andalus_RE","cornuData":"Qānt"},{"id":"SHATIBA_005W389N_S","name":"Šātibaŧ","nameAr":"شاتبة","search":"Shatiba","lng":-0.5228,"lat":38.9655,"type":"towns","region":"Andalus_RE","cornuData":"Šātibaŧ"},{"id":"SARAQUSA_009W416N_R","name":"Saraqūsaŧ","nameAr":"سرقوسة","search":"Saraqusa, Saraqusta","lng":-0.9292,"lat":41.6337,"type":"regions","region":"Andalus_RE","cornuData":"Saraqūsaŧ"},{"id":"SARAQUSA_009W416N_S","name":"Saraqūsaŧ","nameAr":"سرقوسة","search":"Saraqusa, Saraqusta","lng":-0.9292,"lat":41.6337,"type":"towns","region":"Andalus_RE","cornuData":"Saraqūsaŧ"},{"id":"QARTAJANNA_009W376N_S","name":"Qarṭāǧannaŧ","nameAr":"قرطاجنة","search":"Qartajanna","lng":-0.9831,"lat":37.6005,"type":"villages","region":"Andalus_RE","cornuData":"Qarṭāǧannaŧ"},{"id":"NAHRABRUH_009W417N_W","name":"Nahr Abruh","nameAr":"نهر أبره","search":"Nahr Abruh","lng":-0.9993,"lat":41.7827,"type":"waters","region":"Andalus_RE","cornuData":"Nahr Abruh"},{"id":"MURSIYA_011W379N_S","name":"Mursiyaŧ","nameAr":"مرسية","search":"Mursiya","lng":-1.1144,"lat":37.9995,"type":"towns","region":"Andalus_RE","cornuData":"Mursiyaŧ"},{"id":"TUDMIR_013W379N_R","name":"Tudmīr","nameAr":"تدمير","search":"Tudmir","lng":-1.3446,"lat":37.9583,"type":"regions","region":"Andalus_RE","cornuData":"Tudmīr"},{"id":"TUTILA_016W420N_R","name":"Tuṭīlaŧ","nameAr":"تطيلة","search":"Tutila","lng":-1.627,"lat":42.0463,"type":"regions","region":"Andalus_RE","cornuData":"Tuṭīlaŧ"},{"id":"TUTILA_016W420N_S","name":"Tuṭīlaŧ","nameAr":"تطيلة","search":"Tutila","lng":-1.627,"lat":42.0463,"type":"towns","region":"Andalus_RE","cornuData":"Tuṭīlaŧ"},{"id":"LURQA_017W376N_S","name":"Lurqaŧ","nameAr":"لرقة","search":"Lurqa","lng":-1.7313,"lat":37.6532,"type":"towns","region":"Andalus_RE","cornuData":"Lurqaŧ"},{"id":"MADINASALIM_024W411N_S","name":"Madīnaŧ Sālim","nameAr":"مدينة سالم","search":"Madina Salim","lng":-2.4174,"lat":41.1371,"type":"towns","region":"Andalus_RE","cornuData":"Madīnaŧ Sālim"},{"id":"BAJJANA_024W369N_R","name":"Baǧǧānaŧ","nameAr":"بجانة","search":"Bajjana","lng":-2.4183,"lat":36.9566,"type":"regions","region":"Andalus_RE","cornuData":"Baǧǧānaŧ"},{"id":"BAJJANA_024W369N_S","name":"Baǧǧānaŧ","nameAr":"بجانة","search":"Bajjana","lng":-2.4183,"lat":36.9566,"type":"towns","region":"Andalus_RE","cornuData":"Baǧǧānaŧ"},{"id":"MARIYYA_025W368N_S","name":"al-Mariyyaŧ","nameAr":"المرية","search":"al-Mariyya","lng":-2.501,"lat":36.862,"type":"towns","region":"Andalus_RE","cornuData":"al-Mariyyaŧ"},{"id":"WADIHIJARA_031W406N_R","name":"Wādī al-Ḥijāraŧ","nameAr":"وادي الحجارة","search":"Wadi al-Hijara","lng":-3.1511,"lat":40.6491,"type":"regions","region":"Andalus_RE","cornuData":"Wādī al-Ḥijāraŧ"},{"id":"WADIHIJARA_031W406N_S","name":"Wādī al-Ḥijāraŧ","nameAr":"وادي الحجارة","search":"Wadi al-Hijara","lng":-3.1511,"lat":40.6491,"type":"towns","region":"Andalus_RE","cornuData":"Wādī al-Ḥijāraŧ"},{"id":"WADIYASH_031W373N_S","name":"Wādiyāš","nameAr":"وادياش","search":"Wadiyash","lng":-3.1646,"lat":37.3397,"type":"towns","region":"Andalus_RE","cornuData":"Wādiyāš"},{"id":"SHAWDHAR_033W378N_S","name":"Šawḏar","nameAr":"شوذر","search":"Shawdhar","lng":-3.348,"lat":37.8764,"type":"towns","region":"Andalus_RE","cornuData":"Šawḏar"},{"id":"BAYYASA_034W379N_S","name":"Bayyāsaŧ","nameAr":"بياسة","search":"Bayyasa","lng":-3.4577,"lat":37.9998,"type":"towns","region":"Andalus_RE","cornuData":"Bayyāsaŧ"},{"id":"GHARNATA_035W372N_S","name":"Ġarnāṭaŧ","nameAr":"غرناطة","search":"Gharnata","lng":-3.5998,"lat":37.2062,"type":"towns","region":"Andalus_RE","cornuData":"Ġarnāṭaŧ"},{"id":"MANTISHA_036W398N_S","name":"Mantīšaŧ","nameAr":"منتيشة","search":"Mantisha","lng":-3.6259,"lat":39.8133,"type":"towns","region":"Andalus_RE","cornuData":"Mantīšaŧ"},{"id":"LIBIRA_036W372N_R","name":"Libīraŧ","nameAr":"لبيرة","search":"Libira, Ilbira","lng":-3.6681,"lat":37.2273,"type":"regions","region":"Andalus_RE","cornuData":"Libīraŧ"},{"id":"LIBIRA_036W372N_S","name":"Libīraŧ","nameAr":"لبيرة","search":"Libira, Ilbira","lng":-3.6681,"lat":37.2273,"type":"towns","region":"Andalus_RE","cornuData":"Libīraŧ"},{"id":"QALARABAH_037W388N_S","name":"Qalʿaŧ Rabāḥ","nameAr":"قلعة رباح","search":"Qala Rabah, Qala Ribat","lng":-3.7832,"lat":38.8031,"type":"towns","region":"Andalus_RE","cornuData":"Qalʿaŧ Rabāḥ"},{"id":"JAYYAN_038W377N_S","name":"Ǧayyān","nameAr":"جيان","search":"Jayyan","lng":-3.803,"lat":37.7898,"type":"towns","region":"Andalus_RE","cornuData":"Ǧayyān"},{"id":"QASTALLA_038W379N_S","name":"Qasṭallaŧ","nameAr":"قسطلة","search":"Qastalla","lng":-3.8768,"lat":37.9885,"type":"towns","region":"Andalus_RE","cornuData":"Qasṭallaŧ"},{"id":"ABNASH_039W396N_S","name":"Abnaš","nameAr":"أبنش","search":"Abnash","lng":-3.91,"lat":39.6321,"type":"towns","region":"Andalus_RE","cornuData":"Abnaš"},{"id":"MALAQUN_039W391N_S","name":"Malaqūn","nameAr":"ملقون","search":"Malaqun","lng":-3.9136,"lat":39.1739,"type":"towns","region":"Andalus_RE","cornuData":"Malaqūn"},{"id":"MUGHAN_039W399N_S","name":"Muġān","nameAr":"مغان","search":"Mughan","lng":-3.9424,"lat":39.9706,"type":"villages","region":"Andalus_RE","cornuData":"Muġān"},{"id":"MARTUSH_039W377N_S","name":"Mārtūš","nameAr":"مارتوش","search":"Martush","lng":-3.9883,"lat":37.7428,"type":"towns","region":"Andalus_RE","cornuData":"Mārtūš"},{"id":"TULAYTILA_040W398N_R","name":"Ṭulayṭilaŧ","nameAr":"طليطلة","search":"Tulaytila","lng":-4.0521,"lat":39.8893,"type":"regions","region":"Andalus_RE","cornuData":"Ṭulayṭilaŧ"},{"id":"TULAYTILA_040W398N_S","name":"Ṭulayṭilaŧ","nameAr":"طليطلة","search":"Tulaytila","lng":-4.0521,"lat":39.8893,"type":"towns","region":"Andalus_RE","cornuData":"Ṭulayṭilaŧ"},{"id":"ARJUNA_040W379N_S","name":"Arǧūnaŧ","nameAr":"أرجونة","search":"Arjuna","lng":-4.053,"lat":37.9204,"type":"towns","region":"Andalus_RE","cornuData":"Arǧūnaŧ"},{"id":"KARKUYA_040W388N_S","name":"Karkūyaŧ","nameAr":"كركوية","search":"Karkuya","lng":-4.0692,"lat":38.8178,"type":"towns","region":"Andalus_RE","cornuData":"Karkūyaŧ"},{"id":"BAYGHU_042W374N_S","name":"Bayġū","nameAr":"بيغو","search":"Bayghu","lng":-4.2041,"lat":37.4579,"type":"towns","region":"Andalus_RE","cornuData":"Bayġū"},{"id":"HISNBULKUNA_042W378N_S","name":"Ḥiṣn Bulkūnaŧ","nameAr":"حصن بلكونة","search":"Hisn Bulkuna","lng":-4.2203,"lat":37.8707,"type":"towns","region":"Andalus_RE","cornuData":"Ḥiṣn Bulkūnaŧ"},{"id":"RAYYA_044W369N_R","name":"Rayyaŧ","nameAr":"رية","search":"Rayya, Rayyuh","lng":-4.4037,"lat":36.9835,"type":"regions","region":"Andalus_RE","cornuData":"Rayyaŧ"},{"id":"ARJIDUNA_044W370N_S","name":"Arǧidūnaŧ","nameAr":"أرجدونة","search":"Arjiduna","lng":-4.4289,"lat":37.0869,"type":"towns","region":"Andalus_RE","cornuData":"Arǧidūnaŧ"},{"id":"MALIQA_044W367N_R","name":"Māliqaŧ","nameAr":"مالقة","search":"Maliqa","lng":-4.4307,"lat":36.7479,"type":"regions","region":"Andalus_RE","cornuData":"Māliqaŧ"},{"id":"MALIQA_044W367N_S","name":"Māliqaŧ","nameAr":"مالقة","search":"Maliqa","lng":-4.4307,"lat":36.7479,"type":"towns","region":"Andalus_RE","cornuData":"Māliqaŧ"},{"id":"QURTUBA_047W379N_S","name":"Qurṭubaŧ","nameAr":"قرطبة","search":"Qurtuba","lng":-4.7813,"lat":37.919,"type":"metropoles","region":"Andalus_RE","cornuData":"Qurṭubaŧ"},{"id":"TALABIRA_048W399N_S","name":"Ṭalābiraŧ","nameAr":"طلابرة","search":"Talabira","lng":-4.8254,"lat":39.9706,"type":"towns","region":"Andalus_RE","cornuData":"Ṭalābiraŧ"},{"id":"ZAHRA_048W379N_S","name":"al-Zahrāʾ","nameAr":"الزهراء","search":"al-Zahra","lng":-4.8533,"lat":37.9601,"type":"towns","region":"Andalus_RE","cornuData":"al-Zahrāʾ"},{"id":"FAHSBALLUT_048W386N_R","name":"Faḥṣ al-Ballūṭ","nameAr":"فحص البلوط","search":"Fahs al-Ballut","lng":-4.8955,"lat":38.6302,"type":"regions","region":"Andalus_RE","cornuData":"Faḥṣ al-Ballūṭ"},{"id":"GHAFIQ_050W386N_S","name":"Ġāfiq","nameAr":"غافق","search":"Ghafiq","lng":-5.0106,"lat":38.6821,"type":"towns","region":"Andalus_RE","cornuData":"Ġāfiq"},{"id":"ISTIJA_051W375N_S","name":"Istiǧaŧ","nameAr":"إستجة","search":"Istija","lng":-5.1086,"lat":37.5349,"type":"towns","region":"Andalus_RE","cornuData":"Istiǧaŧ"},{"id":"NAHRQURTUBA_051W377N_W","name":"Nahr Qurṭūbaŧ","nameAr":"نهر قرطوبة","search":"Nahr Qurtuba","lng":-5.1123,"lat":37.7542,"type":"waters","region":"Andalus_RE","cornuData":"Nahr Qurṭūbaŧ"},{"id":"JAZIRAJABALTARIQ_053W361N_S","name":"Ǧazīraŧ Ǧabal Ṭāriq","nameAr":"جزيرة جبل طارق","search":"Jazira Jabal Tariq","lng":-5.3307,"lat":36.1675,"type":"towns","region":"Andalus_RE","cornuData":"Ǧazīraŧ Ǧabal Ṭāriq"},{"id":"JAZIRAKHADRA_054W361N_R","name":"Ǧazīraŧ al-Ḫaḍrāʾ","nameAr":"جزيرة الخضراء","search":"Jazira al-Khadra","lng":-5.4379,"lat":36.1636,"type":"regions","region":"Andalus_RE","cornuData":"Ǧazīraŧ al-Ḫaḍrāʾ"},{"id":"MAWRUR_054W371N_S","name":"Mawrūr","nameAr":"مورور","search":"Mawrur","lng":-5.4827,"lat":37.1403,"type":"towns","region":"Andalus_RE","cornuData":"Mawrūr"},{"id":"LIYUN_055W426N_S","name":"Liyūn","nameAr":"ليون","search":"Liyun","lng":-5.5663,"lat":42.6185,"type":"towns","region":"Andalus_RE","cornuData":"Liyūn"},{"id":"FIRRISH_055W379N_R","name":"Firrīš","nameAr":"فريش","search":"Firrish, Qarsis","lng":-5.587,"lat":37.9573,"type":"regions","region":"Andalus_RE","cornuData":"Firrīš"},{"id":"QARMUNA_056W374N_S","name":"Qarmūnaŧ","nameAr":"قرمونة","search":"Qarmuna","lng":-5.641,"lat":37.4293,"type":"towns","region":"Andalus_RE","cornuData":"Qarmūnaŧ"},{"id":"SAMMURA_057W414N_S","name":"Sammūraŧ","nameAr":"سمورة","search":"Sammura","lng":-5.7678,"lat":41.4405,"type":"towns","region":"Andalus_RE","cornuData":"Sammūraŧ"},{"id":"SHADHUNA_059W364N_R","name":"Šaḏūnaŧ","nameAr":"شذونة","search":"Shadhuna, Shaduna","lng":-5.9143,"lat":36.4664,"type":"regions","region":"Andalus_RE","cornuData":"Šaḏūnaŧ"},{"id":"SHADHUNA_059W364N_S","name":"Šaḏūnaŧ","nameAr":"شذونة","search":"Shadhuna, Shaduna","lng":-5.9143,"lat":36.4664,"type":"towns","region":"Andalus_RE","cornuData":"Šaḏūnaŧ"},{"id":"TARAJILA_059W394N_S","name":"Taraǧīlaŧ","nameAr":"ترجيلة","search":"Tarajila","lng":-5.9386,"lat":39.4865,"type":"towns","region":"Andalus_RE","cornuData":"Taraǧīlaŧ"},{"id":"MADALLIN_059W389N_S","name":"Madallīn","nameAr":"مدلين","search":"Madallin","lng":-5.9413,"lat":38.9323,"type":"towns","region":"Andalus_RE","cornuData":"Madallīn"},{"id":"ISHBILIYYA_059W374N_R","name":"Išbīliyyaŧ","nameAr":"إشبيلية","search":"Ishbiliyya","lng":-5.962,"lat":37.4079,"type":"regions","region":"Andalus_RE","cornuData":"Išbīliyyaŧ"},{"id":"ISHBILIYYA_059W374N_S","name":"Išbīliyyaŧ","nameAr":"إشبيلية","search":"Ishbiliyya","lng":-5.962,"lat":37.4079,"type":"towns","region":"Andalus_RE","cornuData":"Išbīliyyaŧ"},{"id":"MAKHADABALAT_060W398N_S","name":"Maḫāḍaŧ al-Balāṭ","nameAr":"مخاضة البلاط","search":"Makhada al-Balat","lng":-6.0663,"lat":39.8064,"type":"towns","region":"Andalus_RE","cornuData":"Maḫāḍaŧ al-Balāṭ"},{"id":"SHARISH_061W366N_S","name":"Šarīš","nameAr":"شريش","search":"Sharish","lng":-6.1086,"lat":36.6917,"type":"towns","region":"Andalus_RE","cornuData":"Šarīš"},{"id":"QADIS_061W365N_S","name":"Qādis","nameAr":"قادس","search":"Qadis","lng":-6.1841,"lat":36.5719,"type":"towns","region":"Andalus_RE","cornuData":"Qādis"},{"id":"MARIDA_063W388N_S","name":"Māridaŧ","nameAr":"ماردة","search":"Marida","lng":-6.3289,"lat":38.8952,"type":"towns","region":"Andalus_RE","cornuData":"Māridaŧ"},{"id":"QASARASH_063W394N_S","name":"Qaṣarāš","nameAr":"قصراش","search":"Qasarash","lng":-6.3954,"lat":39.4695,"type":"towns","region":"Andalus_RE","cornuData":"Qaṣarāš"},{"id":"QURIYA_065W399N_S","name":"Quriyaŧ","nameAr":"قرية","search":"Quriya","lng":-6.5501,"lat":39.9627,"type":"towns","region":"Andalus_RE","cornuData":"Quriyaŧ"},{"id":"LABLA_066W373N_S","name":"Lablaŧ","nameAr":"لبلة","search":"Labla","lng":-6.6696,"lat":37.3897,"type":"towns","region":"Andalus_RE","cornuData":"Lablaŧ"},{"id":"QANTARASIF_068W396N_S","name":"Qanṭaraŧ al-Sīf","nameAr":"قنطرة السيف","search":"Qantara al-Sif","lng":-6.8414,"lat":39.6906,"type":"towns","region":"Andalus_RE","cornuData":"Qanṭaraŧ al-Sīf"},{"id":"MAIDA_068W406N_S","name":"al-Maʾidaŧ","nameAr":"المئدة","search":"al-Maida","lng":-6.8756,"lat":40.6232,"type":"towns","region":"Andalus_RE","cornuData":"al-Maʾidaŧ"},{"id":"BATALYUS_069W388N_R","name":"Baṭalyūs","nameAr":"بطليوس","search":"Batalyus, Batalyuth","lng":-6.9961,"lat":38.835,"type":"regions","region":"Andalus_RE","cornuData":"Baṭalyūs"},{"id":"BATALYUS_069W388N_S","name":"Baṭalyūs","nameAr":"بطليوس","search":"Batalyus, Batalyuth","lng":-6.9961,"lat":38.835,"type":"towns","region":"Andalus_RE","cornuData":"Baṭalyūs"},{"id":"JABALUYUN_069W374N_S","name":"Ǧabal al-ʿUyūn","nameAr":"جبل العيون","search":"Jabal al-Uyun","lng":-6.997,"lat":37.4111,"type":"towns","region":"Andalus_RE","cornuData":"Ǧabal al-ʿUyūn"},{"id":"BASH_071W388N_S","name":"al-Baš","nameAr":"البش","search":"al-Bash, Albas","lng":-7.1741,"lat":38.8756,"type":"towns","region":"Andalus_RE","cornuData":"al-Baš"},{"id":"LAB_072W372N_S","name":"Lab","nameAr":"لب","search":"Lab","lng":-7.22,"lat":37.2381,"type":"towns","region":"Andalus_RE","cornuData":"Lab"},{"id":"JALMANIYA_072W387N_S","name":"Ǧalmāniyaŧ","nameAr":"جلمانية","search":"Jalmaniya","lng":-7.2298,"lat":38.7789,"type":"towns","region":"Andalus_RE","cornuData":"Ǧalmāniyaŧ"},{"id":"BAJA_078W380N_R","name":"Bāǧaŧ","nameAr":"باجة","search":"Baja","lng":-7.8044,"lat":38.0069,"type":"regions","region":"Andalus_RE","cornuData":"Bāǧaŧ"},{"id":"BAJA_078W380N_S","name":"Bāǧaŧ","nameAr":"باجة","search":"Baja","lng":-7.8044,"lat":38.0069,"type":"towns","region":"Andalus_RE","cornuData":"Bāǧaŧ"},{"id":"BIZA_078W390N_S","name":"Bīzaŧ","nameAr":"بيزة","search":"Biza","lng":-7.8719,"lat":39.0281,"type":"towns","region":"Andalus_RE","cornuData":"Bīzaŧ"},{"id":"KHUSHUNUBA_079W370N_R","name":"Ḫušunubaŧ","nameAr":"خشنبة","search":"Khushunuba, Ukhshunuba","lng":-7.9051,"lat":37.0646,"type":"regions","region":"Andalus_RE","cornuData":"Ḫušunubaŧ"},{"id":"KHUSHUNUBA_079W370N_S","name":"Ḫušunubaŧ","nameAr":"خشنبة","search":"Khushunuba, Ukhshunuba","lng":-7.9051,"lat":37.0646,"type":"towns","region":"Andalus_RE","cornuData":"Ḫušunubaŧ"},{"id":"WADITAJU_080W395N_W","name":"Wādī Tāǧū","nameAr":"وادي تاجو","search":"Wadi Taju","lng":-8.0355,"lat":39.5299,"type":"waters","region":"Andalus_RE","cornuData":"Wādī Tāǧū"},{"id":"MADINASHALAB_084W372N_S","name":"Madīnaŧ Šalab","nameAr":"مدينة شلب","search":"Madina Shalab, Shilb","lng":-8.4231,"lat":37.2252,"type":"towns","region":"Andalus_RE","cornuData":"Madīnaŧ Šalab"},{"id":"QASRBANUWARDAS_084W383N_S","name":"Qaṣr Banū Wardās","nameAr":"قصر بنو ورداس","search":"Qasr Banu Wardas","lng":-8.4833,"lat":38.367,"type":"towns","region":"Andalus_RE","cornuData":"Qaṣr Banū Wardās"},{"id":"SHANTARIN_087W392N_S","name":"Šantarīn","nameAr":"شنترين","search":"Shantarin","lng":-8.7171,"lat":39.2234,"type":"towns","region":"Andalus_RE","cornuData":"Šantarīn"},{"id":"LISHBUNA_091W387N_S","name":"Lišbūnaŧ","nameAr":"لشبونة","search":"Lishbuna","lng":-9.1451,"lat":38.7688,"type":"towns","region":"Andalus_RE","cornuData":"Lišbūnaŧ"},{"id":"MADAN_091W386N_S","name":"al-Maʿdan","nameAr":"المعدن","search":"al-Madan","lng":-9.1919,"lat":38.6498,"type":"towns","region":"Andalus_RE","cornuData":"al-Maʿdan"},{"id":"SHANTARA_093W388N_S","name":"Šantaraŧ","nameAr":"شنترة","search":"Shantara","lng":-9.3735,"lat":38.8084,"type":"villages","region":"Andalus_RE","cornuData":"Šantaraŧ"},{"id":"BAYDA_005E418N_S","name":"al-Bayḍāʾ","nameAr":"البيضاء","search":"al-Bayda","lng":0.5778,"lat":41.8363,"type":"towns","region":"Andalus_RE","cornuData":"al-Bayḍāʾ"},{"id":"TURTUSHA_006E407N_S","name":"Ṭurṭūšaŧ","nameAr":"طرطوشة","search":"Turtusha","lng":0.6093,"lat":40.7922,"type":"towns","region":"Andalus_RE","cornuData":"Ṭurṭūšaŧ"},{"id":"LARIDA_006E416N_S","name":"Lāridaŧ","nameAr":"لاردة","search":"Larida","lng":0.6489,"lat":41.6095,"type":"waystations","region":"Andalus_RE","cornuData":"Lāridaŧ"},{"id":"YABISA_014E389N_R","name":"Yābisaŧ","nameAr":"يابسة","search":"Yabisa","lng":1.4114,"lat":38.9498,"type":"regions","region":"Andalus_RE","cornuData":"Yābisaŧ"},{"id":"BAHRRUM_017E372N_W","name":"Baḥr al-Rūm","nameAr":"بحر الروم","search":"Bahr al-Rum","lng":1.7171,"lat":37.2889,"type":"waters","region":"Andalus_RE","cornuData":"Baḥr al-Rūm"},{"id":"JIRUNDA_028E419N_S","name":"Ǧirundaŧ","nameAr":"جرندة","search":"Jirunda","lng":2.8447,"lat":41.9361,"type":"towns","region":"Andalus_RE","cornuData":"Ǧirundaŧ"},{"id":"ARBUNA_030E431N_S","name":"Arbūnaŧ","nameAr":"أربونة","search":"Arbuna","lng":3.0012,"lat":43.1864,"type":"towns","region":"Andalus_RE","cornuData":"Arbūnaŧ"},{"id":"MARASH_369E375N_S","name":"Marʿaš","nameAr":"مرعش","search":"Marash","lng":36.9299,"lat":37.5831,"type":"waystations","region":"Aqur_RE","cornuData":"Marʿaš"},{"id":"DULUK_371E371N_S","name":"Dulūk","nameAr":"دلوك","search":"Duluk","lng":37.1767,"lat":37.1764,"type":"towns","region":"Aqur_RE","cornuData":"Dulūk"},{"id":"HADATH_375E377N_S","name":"al-Ḥadaṯ","nameAr":"الحدث","search":"al-Hadath","lng":37.5254,"lat":37.73,"type":"towns","region":"Aqur_RE","cornuData":"al-Ḥadaṯ"},{"id":"RABAN_376E374N_S","name":"Raʿbān","nameAr":"رعبان","search":"Raban","lng":37.6803,"lat":37.4316,"type":"towns","region":"Aqur_RE","cornuData":"Raʿbān"},{"id":"ZIBATRA_379E380N_S","name":"Zibaṭraŧ","nameAr":"زبطرة","search":"Zibatra","lng":37.9046,"lat":38.0931,"type":"waystations","region":"Aqur_RE","cornuData":"Zibaṭraŧ"},{"id":"ARQA_379E383N_S","name":"ʿArqaŧ","nameAr":"عرقة","search":"Arqa","lng":37.9625,"lat":38.3637,"type":"waystations","region":"Aqur_RE","cornuData":"ʿArqaŧ"},{"id":"MANBIJ_379E365N_S","name":"Manbiǧ","nameAr":"منبج","search":"Manbij","lng":37.9896,"lat":36.5465,"type":"towns","region":"Aqur_RE","cornuData":"Manbiǧ"},{"id":"HISNMANSUR_380E378N_S","name":"Ḥiṣn Manṣūr","nameAr":"حصن منصور","search":"Hisn Mansur","lng":38.0597,"lat":37.8237,"type":"waystations","region":"Aqur_RE","cornuData":"Ḥiṣn Manṣūr"},{"id":"QASRSANJA_381E374N_S","name":"Qaṣr Sanǧaŧ","nameAr":"قصر سنجة","search":"Qasr Sanja, Sanja","lng":38.1949,"lat":37.4947,"type":"towns","region":"Aqur_RE","cornuData":"Qaṣr Sanǧaŧ"},{"id":"JISRMANBIJ_382E366N_S","name":"Ǧisr Manbiǧ","nameAr":"جسر منبج","search":"Jisr Manbij","lng":38.2206,"lat":36.6717,"type":"towns","region":"Aqur_RE","cornuData":"Ǧisr Manbiǧ"},{"id":"MALATIN_383E383N_S","name":"Malaṭīn","nameAr":"ملطين","search":"Malatin, Malatiya","lng":38.3577,"lat":38.3581,"type":"towns","region":"Aqur_RE","cornuData":"Malaṭīn"},{"id":"SIFFIN_384E358N_O","name":"Ṣiffīn","nameAr":"صفين","search":"Siffin","lng":38.4104,"lat":35.8566,"type":"sites","region":"Aqur_RE","cornuData":"Ṣiffīn"},{"id":"SARUJ_384E369N_S","name":"Sarūǧ","nameAr":"سروج","search":"Saruj","lng":38.4381,"lat":36.9791,"type":"villages","region":"Aqur_RE","cornuData":"Sarūǧ"},{"id":"MUZANIYYA_385E372N_S","name":"al-Muzāniyyaŧ","nameAr":"المزانية","search":"al-Muzaniyya","lng":38.5269,"lat":37.2885,"type":"waystations","region":"Aqur_RE","cornuData":"al-Muzāniyyaŧ"},{"id":"QALAIBRIQ_385E390N_S","name":"Qalʿaŧ Ibrīq","nameAr":"قلعة إبريق","search":"Qala Ibriq","lng":38.5382,"lat":39.0527,"type":"waystations","region":"Aqur_RE","cornuData":"Qalʿaŧ Ibrīq"},{"id":"SUMAYSAT_385E375N_S","name":"Sumaysāṭ","nameAr":"سميساط","search":"Sumaysat","lng":38.5436,"lat":37.5433,"type":"towns","region":"Aqur_RE","cornuData":"Sumaysāṭ"},{"id":"TALLABDA_387E366N_S","name":"Tall ʿAbdā","nameAr":"تل عبدا","search":"Tall Abda","lng":38.7291,"lat":36.6922,"type":"waystations","region":"Aqur_RE","cornuData":"Tall ʿAbdā"},{"id":"RUHA_388E371N_S","name":"al-Ruhā","nameAr":"الرها","search":"al-Ruha","lng":38.8212,"lat":37.1497,"type":"towns","region":"Aqur_RE","cornuData":"al-Ruhā"},{"id":"JULLAB_389E374N_S","name":"Ǧullāb","nameAr":"جلاب","search":"Jullab","lng":38.9105,"lat":37.4105,"type":"waystations","region":"Aqur_RE","cornuData":"Ǧullāb"},{"id":"AYNRUMIYYA_389E363N_S","name":"ʿAyn al-Rūmiyyaŧ","nameAr":"عين الرومية","search":"Ayn al-Rumiyya","lng":38.9121,"lat":36.3498,"type":"waystations","region":"Aqur_RE","cornuData":"ʿAyn al-Rūmiyyaŧ"},{"id":"DIYARMUDAR_389E365N_R","name":"Diyār Muḍar","nameAr":"ديار مضر","search":"Diyar Mudar","lng":38.9826,"lat":36.5634,"type":"regions","region":"Aqur_RE","cornuData":"Diyār Muḍar"},{"id":"BAJARWAN_389E361N_S","name":"Bāǧarwān","nameAr":"باجروان","search":"Bajarwan","lng":38.9856,"lat":36.1357,"type":"towns","region":"Aqur_RE","cornuData":"Bāǧarwān"},{"id":"KAMAKH_390E395N_S","name":"Kamaḫ","nameAr":"كمخ","search":"Kamakh, Kamakh","lng":39.0249,"lat":39.5863,"type":"waystations","region":"Aqur_RE","cornuData":"Kamaḫ"},{"id":"RAQQA_390E359N_S","name":"al-Raqqaŧ","nameAr":"الرقة","search":"al-Raqqa","lng":39.0513,"lat":35.9493,"type":"capitals","region":"Aqur_RE","cornuData":"al-Raqqaŧ"},{"id":"HISNMASLAMA_390E363N_S","name":"Ḥiṣn Maslamaŧ","nameAr":"حصن مسلمة","search":"Hisn Maslama","lng":39.0711,"lat":36.3873,"type":"towns","region":"Aqur_RE","cornuData":"Ḥiṣn Maslamaŧ"},{"id":"RAFIQA_390E359N_S","name":"al-Rāfiqaŧ","nameAr":"الرافقة","search":"al-Rafiqa","lng":39.077,"lat":35.9423,"type":"quarters","region":"Aqur_RE","cornuData":"al-Rāfiqaŧ"},{"id":"HARRAN_390E368N_S","name":"Ḥarrān","nameAr":"حران","search":"Harran","lng":39.0891,"lat":36.8844,"type":"towns","region":"Aqur_RE","cornuData":"Ḥarrān"},{"id":"NAHRBALIKH_390E361N_W","name":"Nahr al-Balīḫ","nameAr":"نهر البليخ","search":"Nahr al-Balikh","lng":39.0966,"lat":36.1175,"type":"waters","region":"Aqur_RE","cornuData":"Nahr al-Balīḫ"},{"id":"TALLMAHRA_391E366N_S","name":"Tall Maḥrá","nameAr":"تل محرى","search":"Tall Mahra, Tall Bahra","lng":39.1386,"lat":36.62,"type":"towns","region":"Aqur_RE","cornuData":"Tall Maḥrá"},{"id":"HISNZIYAD_392E387N_S","name":"Ḥiṣn Ziyād","nameAr":"حصن زياد","search":"Hisn Ziyad","lng":39.2247,"lat":38.7587,"type":"waystations","region":"Aqur_RE","cornuData":"Ḥiṣn Ziyād"},{"id":"BAMAQARA_393E377N_S","name":"Bāmaqarā","nameAr":"بامقرا","search":"Bamaqara, Bamaqda","lng":39.3345,"lat":37.7554,"type":"waystations","region":"Aqur_RE","cornuData":"Bāmaqarā"},{"id":"GHURAYZ_394E353N_S","name":"al-Ġurayz ","nameAr":"الغريز ","search":"al-Ghurayz , al-Urayr","lng":39.4661,"lat":35.3226,"type":"waystations","region":"Aqur_RE","cornuData":"al-Ġurayz "},{"id":"JARNAN_396E379N_S","name":"Ǧarnān","nameAr":"جرنان","search":"Jarnan","lng":39.6176,"lat":37.9294,"type":"waystations","region":"Aqur_RE","cornuData":"Ǧarnān"},{"id":"TALLHUM_397E381N_S","name":"Tall Ḥūm","nameAr":"تل حوم","search":"Tall Hum","lng":39.7545,"lat":38.1978,"type":"towns","region":"Aqur_RE","cornuData":"Tall Ḥūm"},{"id":"QASABA_397E350N_S","name":"al-Qaṣabaŧ","nameAr":"القصبة","search":"al-Qasaba","lng":39.7651,"lat":35.0573,"type":"waystations","region":"Aqur_RE","cornuData":"al-Qaṣabaŧ"},{"id":"TALLMAWZAN_397E372N_S","name":"Tall Mawzan","nameAr":"تل موزن","search":"Tall Mawzan","lng":39.7655,"lat":37.2275,"type":"towns","region":"Aqur_RE","cornuData":"Tall Mawzan"},{"id":"KHANUQA_398E357N_S","name":"al-Ḫānūqaŧ","nameAr":"الخانوقة","search":"al-Khanuqa","lng":39.8166,"lat":35.7522,"type":"towns","region":"Aqur_RE","cornuData":"al-Ḫānūqaŧ"},{"id":"SHIMSHAT_398E386N_S","name":"Šimšāṭ","nameAr":"شمشاط","search":"Shimshat","lng":39.8312,"lat":38.6141,"type":"waystations","region":"Aqur_RE","cornuData":"Šimšāṭ"},{"id":"MUBARAK_398E355N_S","name":"al-Mubārak","nameAr":"المبارك","search":"al-Mubarak","lng":39.8395,"lat":35.5883,"type":"villages","region":"Aqur_RE","cornuData":"al-Mubārak"},{"id":"BIRA_398E356N_S","name":"Bīrā","nameAr":"بيرا","search":"Bira","lng":39.8738,"lat":35.6581,"type":"villages","region":"Aqur_RE","cornuData":"Bīrā"},{"id":"RASAYN_400E368N_S","name":"Raʾs al-ʿAyn","nameAr":"رأس العين","search":"Ras al-Ayn","lng":40.064,"lat":36.8376,"type":"towns","region":"Aqur_RE","cornuData":"Raʾs al-ʿAyn"},{"id":"NAHRDHIB_400E380N_W","name":"Nahr al-Ḏīb","nameAr":"نهر الذيب","search":"Nahr al-Dhib, Nahr al-Kilab","lng":40.0845,"lat":38.076,"type":"waters","region":"Aqur_RE","cornuData":"Nahr al-Ḏīb"},{"id":"AWAMIL_400E349N_S","name":"al-ʿAwāmil","nameAr":"العوامل","search":"al-Awamil","lng":40.0952,"lat":34.932,"type":"waystations","region":"Aqur_RE","cornuData":"al-ʿAwāmil"},{"id":"FAMNAHRSAID_401E353N_S","name":"Fam Nahr Saʿīd","nameAr":"فم نهر سعيد","search":"Fam Nahr Said","lng":40.1313,"lat":35.3238,"type":"waystations","region":"Aqur_RE","cornuData":"Fam Nahr Saʿīd"},{"id":"AMID_402E379N_S","name":"Āmid","nameAr":"آمد","search":"Amid","lng":40.2132,"lat":37.9151,"type":"capitals","region":"Aqur_RE","cornuData":"Āmid"},{"id":"NAHRARSANAS_402E387N_W","name":"Nahr Arsanās","nameAr":"نهر أرسناس","search":"Nahr Arsanas","lng":40.2278,"lat":38.779,"type":"waters","region":"Aqur_RE","cornuData":"Nahr Arsanās"},{"id":"QASRIBNNAZI_403E374N_S","name":"Qaṣr Ibn Nāziʿ","nameAr":"قصر إبن نازع","search":"Qasr Ibn Nazi, Qasr Banu Nazi","lng":40.3276,"lat":37.4083,"type":"waystations","region":"Aqur_RE","cornuData":"Qaṣr Ibn Nāziʿ"},{"id":"JAHSHIYYA_404E366N_S","name":"al-Ǧaḥšiyyaŧ","nameAr":"الجحشية","search":"al-Jahshiyya","lng":40.4135,"lat":36.6549,"type":"towns","region":"Aqur_RE","cornuData":"al-Ǧaḥšiyyaŧ"},{"id":"WADIRAMS_404E381N_W","name":"Wādī al-Rams","nameAr":"وادي الرمس","search":"Wadi al-Rams, al-Rass, Wadi Salb","lng":40.4246,"lat":38.1819,"type":"waters","region":"Aqur_RE","cornuData":"Wādī al-Rams"},{"id":"KAFARTUTHA_404E369N_S","name":"Kafartūṯā","nameAr":"كفرتوثا","search":"Kafartutha","lng":40.427,"lat":36.9875,"type":"towns","region":"Aqur_RE","cornuData":"Kafartūṯā"},{"id":"QARQISIYYA_404E351N_S","name":"Qarqīsiyyaŧ","nameAr":"قرقيسية","search":"Qarqisiyya","lng":40.4375,"lat":35.1462,"type":"towns","region":"Aqur_RE","cornuData":"Qarqīsiyyaŧ"},{"id":"QAMARTI_404E348N_S","name":"al-Qamarṭī","nameAr":"القمرطي","search":"al-Qamarti, al-Qamrati","lng":40.4516,"lat":34.8107,"type":"waystations","region":"Aqur_RE","cornuData":"al-Qamarṭī"},{"id":"RAHBAMALIKIBNTAWQ_404E349N_S","name":"Raḥbaŧ Malik Ibn Ṭawq","nameAr":"رحبة ملك إبن طوق","search":"Rahba Malik Ibn Tawq","lng":40.4578,"lat":34.9882,"type":"towns","region":"Aqur_RE","cornuData":"Raḥbaŧ Malik Ibn Ṭawq"},{"id":"MAJDAL_405E365N_S","name":"al-Maǧdal","nameAr":"المجدل","search":"al-Majdal","lng":40.5515,"lat":36.5345,"type":"towns","region":"Aqur_RE","cornuData":"al-Maǧdal"},{"id":"RIBATDHUQARNAYN_405E385N_S","name":"Ribāṭ Ḏū al-Qarnayn","nameAr":"رباط ذو القرنين","search":"Ribat Dhu al-Qarnayn","lng":40.5607,"lat":38.5757,"type":"waystations","region":"Aqur_RE","cornuData":"Ribāṭ Ḏū al-Qarnayn"},{"id":"FASH_405E349N_S","name":"al-Fāš","nameAr":"الفاش","search":"al-Fash","lng":40.5637,"lat":34.9231,"type":"waystations","region":"Aqur_RE","cornuData":"al-Fāš"},{"id":"DUNAYSIR_405E371N_S","name":"Dunaysīr","nameAr":"دنيسير","search":"Dunaysir","lng":40.5815,"lat":37.1675,"type":"villages","region":"Aqur_RE","cornuData":"Dunaysīr"},{"id":"SUKAYRABBAS_405E352N_S","name":"Sukayr al-ʿAbbās","nameAr":"سكير العباس","search":"Sukayr al-Abbas","lng":40.5877,"lat":35.2421,"type":"towns","region":"Aqur_RE","cornuData":"Sukayr al-ʿAbbās"},{"id":"FUDAYN_405E354N_S","name":"al-Fudayn","nameAr":"الفدين","search":"al-Fudayn","lng":40.5963,"lat":35.4148,"type":"towns","region":"Aqur_RE","cornuData":"al-Fudayn"},{"id":"SUWWAR_406E354N_S","name":"al-Ṣuwwār","nameAr":"الصوار","search":"al-Suwwar","lng":40.6549,"lat":35.4929,"type":"towns","region":"Aqur_RE","cornuData":"al-Ṣuwwār"},{"id":"DIYARBAKR_406E378N_R","name":"Diyār Bakr","nameAr":"ديار بكر","search":"Diyar Bakr","lng":40.6791,"lat":37.8479,"type":"regions","region":"Aqur_RE","cornuData":"Diyār Bakr"},{"id":"ARABAN_406E360N_S","name":"ʿArabān","nameAr":"عربان","search":"Araban","lng":40.694,"lat":36.0581,"type":"capitals","region":"Aqur_RE","cornuData":"ʿArabān"},{"id":"MARDIN_407E373N_S","name":"Mārdīn","nameAr":"ماردين","search":"Mardin","lng":40.7112,"lat":37.3019,"type":"towns","region":"Aqur_RE","cornuData":"Mārdīn"},{"id":"HUSAYN_407E356N_S","name":"al-Ḥuṣayn","nameAr":"الحصين","search":"al-Husayn","lng":40.7164,"lat":35.6232,"type":"towns","region":"Aqur_RE","cornuData":"al-Ḥuṣayn"},{"id":"NAHRKHABUR_407E355N_W","name":"Nahr al-Ḫābūr","nameAr":"نهر الخابور","search":"Nahr al-Khabur","lng":40.735,"lat":35.5033,"type":"waters","region":"Aqur_RE","cornuData":"Nahr al-Ḫābūr"},{"id":"DALIYA_407E347N_S","name":"al-Dāliyaŧ","nameAr":"الدالية","search":"al-Daliya","lng":40.7411,"lat":34.7135,"type":"towns","region":"Aqur_RE","cornuData":"al-Dāliyaŧ"},{"id":"MATARIYYA_407E361N_S","name":"al-Maṭariyyaŧ","nameAr":"المطرية","search":"al-Matariyya","lng":40.7585,"lat":36.1963,"type":"villages","region":"Aqur_RE","cornuData":"al-Maṭariyyaŧ"},{"id":"MIKISIN_407E357N_S","name":"Mīkisīn","nameAr":"ميكسين","search":"Mikisin, Maykisin, Makisin","lng":40.7593,"lat":35.7417,"type":"towns","region":"Aqur_RE","cornuData":"Mīkisīn"},{"id":"TABAN_407E361N_S","name":"Ṭābān","nameAr":"طابان","search":"Taban, Talaban","lng":40.7615,"lat":36.1611,"type":"towns","region":"Aqur_RE","cornuData":"Ṭābān"},{"id":"FURDA_407E346N_S","name":"al-Furḍaŧ","nameAr":"الفرضة","search":"al-Furda","lng":40.7816,"lat":34.679,"type":"villages","region":"Aqur_RE","cornuData":"al-Furḍaŧ"},{"id":"KHALIJBANUJUMAY_408E345N_S","name":"Ḫalīǧ Banū Ǧumayʿ","nameAr":"خليج بنو جميع","search":"Khalij Banu Jumay","lng":40.8516,"lat":34.5458,"type":"waystations","region":"Aqur_RE","cornuData":"Ḫalīǧ Banū Ǧumayʿ"},{"id":"THURABDIN_408E374N_S","name":"Ṯūr ʿAbdīn","nameAr":"ثور عبدين","search":"Thur Abdin","lng":40.8632,"lat":37.4016,"type":"towns","region":"Aqur_RE","cornuData":"Ṯūr ʿAbdīn"},{"id":"TUNANIR_408E363N_S","name":"Tunānīr","nameAr":"تنانير","search":"Tunanir, Tunaynir","lng":40.877,"lat":36.3897,"type":"towns","region":"Aqur_RE","cornuData":"Tunānīr"},{"id":"SHAMSINIYYA_409E358N_S","name":"al-Šamsīniyyaŧ","nameAr":"الشمسينية","search":"al-Shamsiniyya, al-Shamsaniyya","lng":40.9095,"lat":35.867,"type":"towns","region":"Aqur_RE","cornuData":"al-Šamsīniyyaŧ"},{"id":"WADISIBA_409E344N_S","name":"Wādī al-Sibāʿ","nameAr":"وادي السباع","search":"Wadi al-Siba","lng":40.9248,"lat":34.42,"type":"waystations","region":"Aqur_RE","cornuData":"Wādī al-Sibāʿ"},{"id":"DARA_409E371N_S","name":"Dārā","nameAr":"دارا","search":"Dara","lng":40.9469,"lat":37.1853,"type":"towns","region":"Aqur_RE","cornuData":"Dārā"},{"id":"MAYYAFARIQIN_410E381N_S","name":"Mayyāfāriqīn","nameAr":"ميافارقين","search":"Mayyafariqin","lng":41.008,"lat":38.1432,"type":"towns","region":"Aqur_RE","cornuData":"Mayyāfāriqīn"},{"id":"MUNKHARIQ_411E353N_S","name":"al-Munḫariq","nameAr":"المنخرق","search":"al-Munkhariq","lng":41.1356,"lat":35.3355,"type":"towns","region":"Aqur_RE","cornuData":"al-Munḫariq"},{"id":"DAZIQI_411E343N_S","name":"Dāziqī","nameAr":"دازقي","search":"Daziqi","lng":41.1598,"lat":34.334,"type":"waystations","region":"Aqur_RE","cornuData":"Dāziqī"},{"id":"WADIMASULIYAT_411E379N_W","name":"Wādī Masūliyāt","nameAr":"وادي مسوليات","search":"Wadi Masuliyat, Nahr Satidama, Wadi Satidama","lng":41.1701,"lat":37.9833,"type":"waters","region":"Aqur_RE","cornuData":"Wādī Masūliyāt"},{"id":"NASIBIN_412E370N_S","name":"Naṣībīn","nameAr":"نصيبين","search":"Nasibin","lng":41.2217,"lat":37.0551,"type":"towns","region":"Aqur_RE","cornuData":"Naṣībīn"},{"id":"NAHRHIRMAS_412E371N_W","name":"Nahr al-Hirmās","nameAr":"نهر الهرماس","search":"Nahr al-Hirmas","lng":41.2482,"lat":37.1308,"type":"waters","region":"Aqur_RE","cornuData":"Nahr al-Hirmās"},{"id":"BUHAYRAKHATUNIYYA_412E363N_W","name":"Buḥayraŧ Ḫātūniyyaŧ","nameAr":"بحيرة خاتونية","search":"Buhayra Khatuniyya","lng":41.2535,"lat":36.3873,"type":"waters","region":"Aqur_RE","cornuData":"Buḥayraŧ Ḫātūniyyaŧ"},{"id":"TALLFARASHA_413E369N_S","name":"Tall Farāšaŧ","nameAr":"تل فراشة","search":"Tall Farasha","lng":41.3435,"lat":36.9815,"type":"villages","region":"Aqur_RE","cornuData":"Tall Farāšaŧ"},{"id":"HISNKAYFA_414E377N_S","name":"Ḥiṣn Kayfā","nameAr":"حصن كيفا","search":"Hisn Kayfa","lng":41.4211,"lat":37.7002,"type":"towns","region":"Aqur_RE","cornuData":"Ḥiṣn Kayfā"},{"id":"WADISARBAT_414E380N_W","name":"Wādī Ṣarbaṭ","nameAr":"وادي صربط","search":"Wadi Sarbat, Nahr Sarbat, Sarbat","lng":41.4937,"lat":38.0108,"type":"waters","region":"Aqur_RE","cornuData":"Wādī Ṣarbaṭ"},{"id":"NIHIYYA_415E343N_S","name":"al-Nihiyyaŧ","nameAr":"النهية","search":"al-Nihiyya","lng":41.5567,"lat":34.3931,"type":"towns","region":"Aqur_RE","cornuData":"al-Nihiyyaŧ"},{"id":"JIBAL_416E362N_S","name":"al-Ǧibāl","nameAr":"الجبال","search":"al-Jibal, Ayn al-Jibal","lng":41.621,"lat":36.2374,"type":"towns","region":"Aqur_RE","cornuData":"al-Ǧibāl"},{"id":"ARZAN_416E379N_S","name":"Arzan","nameAr":"أرزن","search":"Arzan","lng":41.6596,"lat":37.9789,"type":"villages","region":"Aqur_RE","cornuData":"Arzan"},{"id":"ADHRAMA_417E369N_S","name":"Aḏramaŧ","nameAr":"أذرمة","search":"Adhrama","lng":41.72,"lat":36.9911,"type":"towns","region":"Aqur_RE","cornuData":"Aḏramaŧ"},{"id":"TALLFAFAN_417E377N_S","name":"Tall Fāfān","nameAr":"تل فافان","search":"Tall Fafan, Ayn Tall Fafan","lng":41.7824,"lat":37.7256,"type":"towns","region":"Aqur_RE","cornuData":"Tall Fāfān"},{"id":"SINJAR_418E363N_S","name":"Sinǧār","nameAr":"سنجار","search":"Sinjar","lng":41.891,"lat":36.3245,"type":"towns","region":"Aqur_RE","cornuData":"Sinǧār"},{"id":"TANZA_419E377N_S","name":"Ṭanzaŧ","nameAr":"طنزة","search":"Tanza","lng":41.9163,"lat":37.7874,"type":"villages","region":"Aqur_RE","cornuData":"Ṭanzaŧ"},{"id":"ANA_419E344N_S","name":"ʿĀnaŧ","nameAr":"عانة","search":"Ana","lng":41.959,"lat":34.4348,"type":"towns","region":"Aqur_RE","cornuData":"ʿĀnaŧ"},{"id":"NAHRRAZB_419E378N_W","name":"Nahr al-Razb","nameAr":"نهر الرزب","search":"Nahr al-Razb, al-Razm, al-Zarm","lng":41.9791,"lat":37.8887,"type":"waters","region":"Aqur_RE","cornuData":"Nahr al-Razb"},{"id":"DIYARRABIA_419E366N_R","name":"Diyār Rabīʿaŧ","nameAr":"ديار ربيعة","search":"Diyar Rabia","lng":41.9945,"lat":36.6537,"type":"regions","region":"Aqur_RE","cornuData":"Diyār Rabīʿaŧ"},{"id":"BARQAID_420E369N_S","name":"Barqaʿīd","nameAr":"برقعيد","search":"Barqaid","lng":42.0755,"lat":36.9527,"type":"towns","region":"Aqur_RE","cornuData":"Barqaʿīd"},{"id":"BADLIS_421E383N_S","name":"Badlīs","nameAr":"بدليس","search":"Badlis, Bidlis","lng":42.1327,"lat":38.3955,"type":"towns","region":"Aqur_RE","cornuData":"Badlīs"},{"id":"FUHAYMA_421E342N_S","name":"al-Fuḥaymaŧ","nameAr":"الفحيمة","search":"al-Fuhayma","lng":42.1832,"lat":34.2369,"type":"villages","region":"Aqur_RE","cornuData":"al-Fuḥaymaŧ"},{"id":"JAZIRAIBNUMAR_421E372N_S","name":"Ǧazīraŧ Ibn ʿUmar","nameAr":"جزيرة إبن عمر","search":"Jazira Ibn Umar","lng":42.1994,"lat":37.2852,"type":"villages","region":"Aqur_RE","cornuData":"Ǧazīraŧ Ibn ʿUmar"},{"id":"HADITHA_423E341N_S","name":"al-Ḥadīṯaŧ","nameAr":"الحديثة","search":"al-Haditha","lng":42.3871,"lat":34.1068,"type":"towns","region":"Aqur_RE","cornuData":"al-Ḥadīṯaŧ"},{"id":"ALUS_424E339N_S","name":"Ālūs","nameAr":"آلوس","search":"Alus, Alusa","lng":42.4135,"lat":33.9856,"type":"towns","region":"Aqur_RE","cornuData":"Ālūs"},{"id":"FAYSHABUR_424E370N_S","name":"Fayšābūr","nameAr":"فيشابور","search":"Fayshabur","lng":42.431,"lat":37.0474,"type":"towns","region":"Aqur_RE","cornuData":"Fayšābūr"},{"id":"BAAYNATHA_424E366N_S","name":"Bāʿaynāṯā","nameAr":"باعيناثا","search":"Baaynatha","lng":42.437,"lat":36.6609,"type":"towns","region":"Aqur_RE","cornuData":"Bāʿaynāṯā"},{"id":"TALLAFAR_424E363N_S","name":"Tall Aʿfar","nameAr":"تل أعفر","search":"Tall Afar","lng":42.494,"lat":36.3631,"type":"towns","region":"Aqur_RE","cornuData":"Tall Aʿfar"},{"id":"KHIZANA_425E339N_S","name":"al-Ḫizānaŧ","nameAr":"الخزانة","search":"al-Khizana","lng":42.5007,"lat":33.9843,"type":"waystations","region":"Aqur_RE","cornuData":"al-Ḫizānaŧ"},{"id":"JABALJUDI_425E373N_O","name":"Ǧabal al-Ǧūdī","nameAr":"جبل الجودي","search":"Jabal al-Judi","lng":42.5188,"lat":37.3606,"type":"sites","region":"Aqur_RE","cornuData":"Ǧabal al-Ǧūdī"},{"id":"MALAZKIRD_425E391N_S","name":"Malāzkird","nameAr":"ملازكرد","search":"Malazkird, Malazjird, Manazjird","lng":42.5571,"lat":39.1437,"type":"towns","region":"Rihab_RE","cornuData":"Malāzkird"},{"id":"THAMANIN_426E373N_S","name":"Ṯamānīn","nameAr":"ثمانين","search":"Thamanin","lng":42.6416,"lat":37.313,"type":"towns","region":"Aqur_RE","cornuData":"Ṯamānīn"},{"id":"HADR_426E357N_S","name":"al-Ḥaḍr","nameAr":"الحضر","search":"al-Hadr","lng":42.6963,"lat":35.7951,"type":"towns","region":"Aqur_RE","cornuData":"al-Ḥaḍr"},{"id":"HASANIYYA_427E371N_S","name":"al-Ḥasaniyyaŧ","nameAr":"الحسنية","search":"al-Hasaniyya","lng":42.7225,"lat":37.1108,"type":"towns","region":"Aqur_RE","cornuData":"al-Ḥasaniyyaŧ"},{"id":"BALAD_427E364N_S","name":"Balad","nameAr":"بلد","search":"Balad","lng":42.758,"lat":36.4742,"type":"towns","region":"Aqur_RE","cornuData":"Balad"},{"id":"MAHLABIYYA_427E362N_S","name":"al-Maḥlabiyyaŧ","nameAr":"المحلبية","search":"al-Mahlabiyya","lng":42.7655,"lat":36.2568,"type":"villages","region":"Aqur_RE","cornuData":"al-Maḥlabiyyaŧ"},{"id":"KHABURHASANIYYA_428E370N_W","name":"Ḫābūr al-Ḥasaniyyaŧ","nameAr":"خابور الحسنية","search":"Khabur al-Hasaniyya","lng":42.8048,"lat":37.0663,"type":"waters","region":"Aqur_RE","cornuData":"Ḫābūr al-Ḥasaniyyaŧ"},{"id":"MALATHAYA_429E368N_S","name":"Maʿlaṯāyaŧ","nameAr":"معلثاية","search":"Malathaya","lng":42.9635,"lat":36.816,"type":"towns","region":"Aqur_RE","cornuData":"Maʿlaṯāyaŧ"},{"id":"SHAHHAJIYYA_429E362N_S","name":"al-Šaḥḥāǧiyyaŧ","nameAr":"الشحاجية","search":"al-Shahhajiyya","lng":42.9665,"lat":36.2701,"type":"waystations","region":"Aqur_RE","cornuData":"al-Šaḥḥāǧiyyaŧ"},{"id":"NAHRTHARTHAR_430E350N_W","name":"Nahr Ṯarṯār","nameAr":"نهر ثرثار","search":"Nahr Tharthar","lng":43.0455,"lat":35.0003,"type":"waters","region":"Aqur_RE","cornuData":"Nahr Ṯarṯār"},{"id":"MAZARII_430E366N_S","name":"Mazāriʿī","nameAr":"مزارعي","search":"Mazarii","lng":43.055,"lat":36.6368,"type":"villages","region":"Aqur_RE","cornuData":"Mazāriʿī"},{"id":"MAWSIL_431E363N_S","name":"al-Mawṣil","nameAr":"الموصل","search":"al-Mawsil","lng":43.127,"lat":36.3281,"type":"capitals","region":"Aqur_RE","cornuData":"al-Mawṣil"},{"id":"NINAWA_431E363N_S","name":"Nīnawá","nameAr":"نينوى","search":"Ninawa, Nunawa","lng":43.175,"lat":36.351,"type":"towns","region":"Aqur_RE","cornuData":"Nīnawá"},{"id":"MARJJUHAYNA_432E361N_S","name":"Marǧ Ǧuhaynaŧ","nameAr":"مرج جهينة","search":"Marj Juhayna, Mar Juhayna","lng":43.2665,"lat":36.1424,"type":"towns","region":"Aqur_RE","cornuData":"Marǧ Ǧuhaynaŧ"},{"id":"BAQIA_433E356N_S","name":"al-Baqīʿaŧ","nameAr":"البقيعة","search":"al-Baqia","lng":43.3243,"lat":35.6255,"type":"waystations","region":"Aqur_RE","cornuData":"al-Baqīʿaŧ"},{"id":"BAASHIQA_433E364N_S","name":"Bāʿašīqā","nameAr":"باعشيقا","search":"Baashiqa","lng":43.367,"lat":36.4102,"type":"villages","region":"Aqur_RE","cornuData":"Bāʿašīqā"},{"id":"HADITHA_433E360N_S","name":"al-Ḥadīṯaŧ","nameAr":"الحديثة","search":"al-Haditha","lng":43.3925,"lat":36.0205,"type":"towns","region":"Aqur_RE","cornuData":"al-Ḥadīṯaŧ"},{"id":"NAHRDIJLA_436E346N_W","name":"Nahr Diǧlaŧ","nameAr":"نهر دجلة","search":"Nahr Dijla","lng":43.6042,"lat":34.695,"type":"waters","region":"Aqur_RE","cornuData":"Nahr Diǧlaŧ"},{"id":"ZABKABIR_438E363N_W","name":"Zāb al-Kabīr","nameAr":"زاب الكبير","search":"Zab al-Kabir, Zab al-Ala","lng":43.874,"lat":36.3752,"type":"waters","region":"Aqur_RE","cornuData":"Zāb al-Kabīr"},{"id":"ZABSAGHIR_441E356N_W","name":"Zāb al-Ṣaġīr","nameAr":"زاب الصغير","search":"Zab al-Saghir, Zab al-Asfal","lng":44.1097,"lat":35.6418,"type":"waters","region":"Aqur_RE","cornuData":"Zāb al-Ṣaġīr"},{"id":"NAHRFURAT_412E344N_W","name":"Nahr al-Furāt","nameAr":"نهر الفرات","search":"Nahr al-Furat","lng":41.2143,"lat":34.4573,"type":"waters","region":"Aqur_RE","cornuData":"Nahr al-Furāt"},{"id":"TABUK_365E283N_S","name":"Tabūk","nameAr":"تبوك","search":"Tabuk","lng":36.5062,"lat":28.3711,"type":"towns","region":"BadiyatArab_RE","cornuData":"Tabūk"},{"id":"UBAYR_367E307N_S","name":"Ubayr","nameAr":"أبير","search":"Ubayr, Wubayr","lng":36.7011,"lat":30.7332,"type":"waystations","region":"BadiyatArab_RE","cornuData":"Ubayr"},{"id":"ANAK_367E323N_S","name":"al-Aʿnak","nameAr":"الأعنك","search":"al-Anak","lng":36.7938,"lat":32.3118,"type":"waystations","region":"BadiyatArab_RE","cornuData":"al-Aʿnak"},{"id":"AZRAQ_368E318N_S","name":"al-Azraq","nameAr":"الأزرق","search":"al-Azraq","lng":36.8777,"lat":31.8461,"type":"waystations","region":"BadiyatArab_RE","cornuData":"al-Azraq"},{"id":"AWNID_369E316N_S","name":"al-ʿAwnīd","nameAr":"العونيد","search":"al-Awnid","lng":36.929,"lat":31.6406,"type":"waystations","region":"BadiyatArab_RE","cornuData":"al-ʿAwnīd"},{"id":"MUHDATHA_371E315N_S","name":"al-Muḥdaṯaŧ","nameAr":"المحدثة","search":"al-Muhdatha","lng":37.1549,"lat":31.5128,"type":"waystations","region":"BadiyatArab_RE","cornuData":"al-Muḥdaṯaŧ"},{"id":"JUNAYNA_371E279N_S","name":"al-Ǧunaynaŧ","nameAr":"الجنينة","search":"al-Junayna","lng":37.1979,"lat":27.9214,"type":"waystations","region":"BadiyatArab_RE","cornuData":"al-Ǧunaynaŧ"},{"id":"BAQIA_373E322N_S","name":"al-Baqīʿaŧ","nameAr":"البقيعة","search":"al-Baqia","lng":37.3266,"lat":32.2117,"type":"waystations","region":"BadiyatArab_RE","cornuData":"al-Baqīʿaŧ"},{"id":"GHURRABA_373E313N_S","name":"al-Ġurrabaŧ","nameAr":"الغربة","search":"al-Ghurraba","lng":37.3414,"lat":31.3693,"type":"towns","region":"BadiyatArab_RE","cornuData":"al-Ġurrabaŧ"},{"id":"AJWALI_374E298N_S","name":"al-Aǧwalī","nameAr":"الأجولي","search":"al-Ajwali","lng":37.4317,"lat":29.8786,"type":"waystations","region":"BadiyatArab_RE","cornuData":"al-Aǧwalī"},{"id":"MUHDATHA_374E277N_S","name":"al-Muḥdaṯaŧ","nameAr":"المحدثة","search":"al-Muhdatha","lng":37.4633,"lat":27.7303,"type":"waystations","region":"BadiyatArab_RE","cornuData":"al-Muḥdaṯaŧ"},{"id":"NABK_374E312N_S","name":"al-Nabk","nameAr":"النبك","search":"al-Nabk","lng":37.4648,"lat":31.2124,"type":"waystations","region":"BadiyatArab_RE","cornuData":"al-Nabk"},{"id":"QURAKIR_377E313N_S","name":"Qurākir","nameAr":"قراكر","search":"Qurakir, Quraqir","lng":37.7519,"lat":31.3258,"type":"waystations","region":"BadiyatArab_RE","cornuData":"Qurākir"},{"id":"AQRA_378E271N_S","name":"al-Aqrāʿ","nameAr":"الأقراع","search":"al-Aqra","lng":37.8313,"lat":27.1519,"type":"waystations","region":"BadiyatArab_RE","cornuData":"al-Aqrāʿ"},{"id":"SUWA_378E337N_S","name":"Suwá","nameAr":"سوى","search":"Suwa","lng":37.8515,"lat":33.7277,"type":"waystations","region":"BadiyatArab_RE","cornuData":"Suwá"},{"id":"THAJR_378E288N_S","name":"Ṯaǧr","nameAr":"ثجر","search":"Thajr","lng":37.8915,"lat":28.8752,"type":"waystations","region":"BadiyatArab_RE","cornuData":"Ṯaǧr"},{"id":"BATNSIRR_379E308N_R","name":"Baṭn al-Sirr","nameAr":"بطن السر","search":"Batn al-Sirr","lng":37.965,"lat":30.8629,"type":"regions","region":"BadiyatArab_RE","cornuData":"Baṭn al-Sirr"},{"id":"SAIDA_379E321N_S","name":"al-Sāʿidaŧ","nameAr":"الساعدة","search":"al-Saida","lng":37.9857,"lat":32.1327,"type":"waystations","region":"BadiyatArab_RE","cornuData":"al-Sāʿidaŧ"},{"id":"JARBA_381E304N_S","name":"al-Ǧarbā","nameAr":"الجربا","search":"al-Jarba, al-Jarba","lng":38.1268,"lat":30.4844,"type":"waystations","region":"BadiyatArab_RE","cornuData":"al-Ǧarbā"},{"id":"TAYMA_385E275N_S","name":"Taymāʾ","nameAr":"تيماء","search":"Tayma","lng":38.52,"lat":27.5808,"type":"towns","region":"BadiyatArab_RE","cornuData":"Taymāʾ"},{"id":"RAWARA_386E320N_S","name":"al-Rawārá","nameAr":"الروارى","search":"al-Rawara, al-Dawara","lng":38.6409,"lat":32.0391,"type":"waystations","region":"BadiyatArab_RE","cornuData":"al-Rawārá"},{"id":"ARFAJA_386E299N_S","name":"ʿArfaǧāʾ","nameAr":"عرفجاء","search":"Arfaja","lng":38.6729,"lat":30,"type":"waystations","region":"BadiyatArab_RE","cornuData":"ʿArfaǧāʾ"},{"id":"MUKHRI_387E290N_S","name":"Muḫrī","nameAr":"مخري","search":"Mukhri","lng":38.7075,"lat":29.0177,"type":"waystations","region":"BadiyatArab_RE","cornuData":"Muḫrī"},{"id":"UJAYFIR_387E316N_S","name":"al-Uǧayfir","nameAr":"الأجيفر","search":"al-Ujayfir","lng":38.7198,"lat":31.6582,"type":"waystations","region":"BadiyatArab_RE","cornuData":"al-Uǧayfir"},{"id":"QULUFI_395E321N_S","name":"al-Qulūfī","nameAr":"القلوفي","search":"al-Qulufi, al-Alawi","lng":39.592,"lat":32.1478,"type":"waystations","region":"BadiyatArab_RE","cornuData":"al-Qulūfī"},{"id":"KHAFIYYA_396E319N_S","name":"al-Ḫafiyyaŧ","nameAr":"الخفية","search":"al-Khafiyya","lng":39.6759,"lat":31.9977,"type":"waystations","region":"BadiyatArab_RE","cornuData":"al-Ḫafiyyaŧ"},{"id":"HASHIYYA_398E314N_S","name":"al-Ḥašiyyaŧ","nameAr":"الحشية","search":"al-Hashiyya","lng":39.8219,"lat":31.432,"type":"waystations","region":"BadiyatArab_RE","cornuData":"al-Ḥašiyyaŧ"},{"id":"DAWMAJANDAL_398E297N_S","name":"Dawmaŧ al-Ǧandal","nameAr":"دومة الجندل","search":"Dawma al-Jandal","lng":39.8777,"lat":29.7596,"type":"villages","region":"BadiyatArab_RE","cornuData":"Dawmaŧ al-Ǧandal"},{"id":"JUBBA_401E318N_S","name":"al-Ǧubbaŧ","nameAr":"الجبة","search":"al-Jubba, al-Mahna","lng":40.1831,"lat":31.8495,"type":"waystations","region":"BadiyatArab_RE","cornuData":"al-Ǧubbaŧ"},{"id":"KHATTA_407E316N_S","name":"al-Ḫaṭṭá","nameAr":"الخطى","search":"al-Khatta","lng":40.706,"lat":31.6485,"type":"waystations","region":"BadiyatArab_RE","cornuData":"al-Ḫaṭṭá"},{"id":"KHANFAS_407E314N_S","name":"al-Ḫanfas","nameAr":"الخنفس","search":"al-Khanfas, al-Hanfas, al-Janfas","lng":40.7672,"lat":31.4804,"type":"waystations","region":"BadiyatArab_RE","cornuData":"al-Ḫanfas"},{"id":"KHALAT_413E320N_S","name":"al-Ḫalāṭ","nameAr":"الخلاط","search":"al-Khalat","lng":41.373,"lat":32.0751,"type":"waystations","region":"BadiyatArab_RE","cornuData":"al-Ḫalāṭ"},{"id":"JAM_414E316N_S","name":"al-Ǧamʿ","nameAr":"الجمع","search":"al-Jam","lng":41.4657,"lat":31.6737,"type":"waystations","region":"BadiyatArab_RE","cornuData":"al-Ǧamʿ"},{"id":"QURAY_417E315N_S","name":"al-Qurāy","nameAr":"القراي","search":"al-Quray","lng":41.7933,"lat":31.5107,"type":"waystations","region":"BadiyatArab_RE","cornuData":"al-Qurāy"},{"id":"WADITAYY_419E270N_R","name":"Wādī Ṭayy","nameAr":"وادي طي","search":"Wadi Tayy","lng":41.9457,"lat":27.0557,"type":"sites","region":"BadiyatArab_RE","cornuData":"Wādī Ṭayy"},{"id":"HUSA_420E317N_S","name":"al-Ḥusá","nameAr":"الحسى","search":"al-Husa, al-Jusa","lng":42.0735,"lat":31.7073,"type":"waystations","region":"BadiyatArab_RE","cornuData":"al-Ḥusá"},{"id":"MANHAB_422E272N_R","name":"al-Manhab","nameAr":"المنهب","search":"al-Manhab","lng":42.2122,"lat":27.2743,"type":"sites","region":"BadiyatArab_RE","cornuData":"al-Manhab"},{"id":"AKHDAMIYYA_422E322N_S","name":"al-Aḫdamiyyaŧ","nameAr":"الأخدمية","search":"al-Akhdamiyya","lng":42.2393,"lat":32.2893,"type":"waystations","region":"BadiyatArab_RE","cornuData":"al-Aḫdamiyyaŧ"},{"id":"SALMA_423E272N_R","name":"Salmā","nameAr":"سلما","search":"Salma","lng":42.3503,"lat":27.2436,"type":"regions","region":"BadiyatArab_RE","cornuData":"Salmā"},{"id":"ABYAD_424E318N_S","name":"al-Abyaḍ","nameAr":"الأبيض","search":"al-Abyad","lng":42.4544,"lat":31.8616,"type":"waystations","region":"BadiyatArab_RE","cornuData":"al-Abyaḍ"},{"id":"FAYD_425E270N_S","name":"Fayd","nameAr":"فيد","search":"Fayd","lng":42.5082,"lat":27.0698,"type":"towns","region":"BadiyatArab_RE","cornuData":"Fayd"},{"id":"NAHIT_428E314N_S","name":"al-Naḥīt","nameAr":"النحيت","search":"al-Nahit","lng":42.853,"lat":31.4989,"type":"waystations","region":"BadiyatArab_RE","cornuData":"al-Naḥīt"},{"id":"AJFUR_429E274N_S","name":"al-Aǧfur","nameAr":"الأجفر","search":"al-Ajfur","lng":42.9778,"lat":27.4426,"type":"waystations","region":"BadiyatArab_RE","cornuData":"al-Aǧfur"},{"id":"KHUZAYMIYYA_431E279N_S","name":"al-Ḫuzaymiyyaŧ","nameAr":"الخزيمية","search":"al-Khuzaymiyya","lng":43.1367,"lat":27.9105,"type":"waystations","region":"BadiyatArab_RE","cornuData":"al-Ḫuzaymiyyaŧ"},{"id":"THALABIYYA_431E282N_S","name":"al-Ṯaʿlabiyyaŧ","nameAr":"الثعلبية","search":"al-Thalabiyya","lng":43.1653,"lat":28.2947,"type":"waystations","region":"BadiyatArab_RE","cornuData":"al-Ṯaʿlabiyyaŧ"},{"id":"BITAN_432E287N_S","name":"Biṭān","nameAr":"بطان","search":"Bitan, Qabr al-Idadi","lng":43.2758,"lat":28.749,"type":"waystations","region":"BadiyatArab_RE","cornuData":"Biṭān"},{"id":"SHUQUQ_434E290N_S","name":"al-Šuqūq","nameAr":"الشقوق","search":"al-Shuquq","lng":43.4149,"lat":29.0849,"type":"waystations","region":"BadiyatArab_RE","cornuData":"al-Šuqūq"},{"id":"ZUBALA_435E294N_S","name":"Zubālaŧ","nameAr":"زبالة","search":"Zubala","lng":43.5639,"lat":29.4052,"type":"waystations","region":"BadiyatArab_RE","cornuData":"Zubālaŧ"},{"id":"QA_436E297N_S","name":"al-Qāʾ","nameAr":"القاء","search":"al-Qa","lng":43.6113,"lat":29.7857,"type":"waystations","region":"BadiyatArab_RE","cornuData":"al-Qāʾ"},{"id":"AQABA_436E300N_S","name":"al-ʿAqabaŧ","nameAr":"العقبة","search":"al-Aqaba","lng":43.6147,"lat":30.0907,"type":"waystations","region":"BadiyatArab_RE","cornuData":"al-ʿAqabaŧ"},{"id":"WAQISA_437E305N_S","name":"Wāqisaŧ","nameAr":"واقسة","search":"Waqisa","lng":43.7765,"lat":30.5536,"type":"waystations","region":"BadiyatArab_RE","cornuData":"Wāqisaŧ"},{"id":"QARA_438E308N_S","name":"Qarʿāʾ","nameAr":"قرعاء","search":"Qara","lng":43.813,"lat":30.8758,"type":"waystations","region":"BadiyatArab_RE","cornuData":"Qarʿāʾ"},{"id":"QUTQUTANA_438E319N_S","name":"al-Quṭquṭānaŧ","nameAr":"القطقطانة","search":"al-Qutqutana","lng":43.8229,"lat":31.9366,"type":"waystations","region":"BadiyatArab_RE","cornuData":"al-Quṭquṭānaŧ"},{"id":"QARYATAYN_439E260N_S","name":"al-Qaryatayn","nameAr":"القريتين","search":"al-Qaryatayn","lng":43.9299,"lat":26.0863,"type":"waystations","region":"BadiyatArab_RE","cornuData":"al-Qaryatayn"},{"id":"RUHAYMA_439E318N_S","name":"al-Ruhaymaŧ","nameAr":"الرهيمة","search":"al-Ruhayma","lng":43.9512,"lat":31.86,"type":"waystations","region":"BadiyatArab_RE","cornuData":"al-Ruhaymaŧ"},{"id":"HABIR_439E284N_R","name":"al-Habīr","nameAr":"الهبير","search":"al-Habir","lng":43.9901,"lat":28.4614,"type":"regions","region":"BadiyatArab_RE","cornuData":"al-Habīr"},{"id":"MUGHITHA_440E311N_S","name":"al-Muġīṯaŧ","nameAr":"المغيثة","search":"al-Mughitha","lng":44.0094,"lat":31.101,"type":"waystations","region":"BadiyatArab_RE","cornuData":"al-Muġīṯaŧ"},{"id":"UDHAYB_441E314N_S","name":"al-Uḏayb","nameAr":"الأذيب","search":"al-Udhayb","lng":44.1367,"lat":31.4905,"type":"villages","region":"BadiyatArab_RE","cornuData":"al-Uḏayb"},{"id":"NIBAJ_444E263N_S","name":"al-Nibāǧ","nameAr":"النباج","search":"al-Nibaj","lng":44.4518,"lat":26.3581,"type":"waystations","region":"BadiyatArab_RE","cornuData":"al-Nibāǧ"},{"id":"HAFARABUMUSA_459E284N_S","name":"Ḥafar Abū Mūsá","nameAr":"حفر أبو موسى","search":"Hafar Abu Musa","lng":45.928,"lat":28.4158,"type":"waystations","region":"BadiyatArab_RE","cornuData":"Ḥafar Abū Mūsá"},{"id":"QABIS_100E338N_S","name":"Qābis","nameAr":"قابس","search":"Qabis","lng":10.0856,"lat":33.866,"type":"towns","region":"Barqa_RE","cornuData":"Qābis"},{"id":"FAWWARA_105E335N_S","name":"al-Fawwāraŧ","nameAr":"الفوارة","search":"al-Fawwara","lng":10.5088,"lat":33.5513,"type":"waystations","region":"Barqa_RE","cornuData":"al-Fawwāraŧ"},{"id":"BARJAMT_116E330N_S","name":"Bārǧamt","nameAr":"بارجمت","search":"Barjamt, Abar Dakht","lng":11.6385,"lat":33.0568,"type":"waystations","region":"Barqa_RE","cornuData":"Bārǧamt"},{"id":"SABRA_124E327N_S","name":"Ṣabraŧ","nameAr":"صبرة","search":"Sabra","lng":12.4815,"lat":32.7882,"type":"towns","region":"Barqa_RE","cornuData":"Ṣabraŧ"},{"id":"ATRABULUS_131E328N_S","name":"Aṭrābulus","nameAr":"أطرابلس","search":"Atrabulus, Tarabulus","lng":13.1921,"lat":32.878,"type":"towns","region":"Barqa_RE","cornuData":"Aṭrābulus"},{"id":"WADIRAML_135E327N_S","name":"Wādī al-Raml","nameAr":"وادي الرمل","search":"Wadi al-Raml","lng":13.575,"lat":32.7376,"type":"waystations","region":"Barqa_RE","cornuData":"Wādī al-Raml"},{"id":"ZAWILA_147E257N_S","name":"Zawīlaŧ","nameAr":"زويلة","search":"Zawila, Zawila b. al-Khattab","lng":14.7884,"lat":25.781,"type":"villages","region":"Barqa_RE","cornuData":"Zawīlaŧ"},{"id":"TAWARGHA_148E319N_S","name":"Tawarġaŧ","nameAr":"تورغة","search":"Tawargha","lng":14.8625,"lat":31.9802,"type":"villages","region":"Barqa_RE","cornuData":"Tawarġaŧ"},{"id":"QUSURHASSAN_158E312N_S","name":"Quṣūr Ḥassān","nameAr":"قصور حسان","search":"Qusur Hassan","lng":15.8792,"lat":31.2588,"type":"waystations","region":"Barqa_RE","cornuData":"Quṣūr Ḥassān"},{"id":"MAGHMADASH_162E311N_S","name":"Maġmadāš","nameAr":"مغمداش","search":"Maghmadash","lng":16.2217,"lat":31.193,"type":"waystations","region":"Barqa_RE","cornuData":"Maġmadāš"},{"id":"WADDAN_162E289N_S","name":"Waddān","nameAr":"ودان","search":"Waddan","lng":16.2833,"lat":28.9649,"type":"villages","region":"Barqa_RE","cornuData":"Waddān"},{"id":"QARYATAYN_164E311N_O","name":"al-Qaryatayn","nameAr":"القريتين","search":"al-Qaryatayn","lng":16.4449,"lat":31.1832,"type":"sites","region":"Barqa_RE","cornuData":"al-Qaryatayn"},{"id":"SURT_166E310N_S","name":"Surt","nameAr":"سرت","search":"Surt","lng":16.6084,"lat":31.0992,"type":"towns","region":"Barqa_RE","cornuData":"Surt"},{"id":"QASRIBADI_172E309N_S","name":"Qaṣr al-ʿIbādī","nameAr":"قصر العبادي","search":"Qasr al-Ibadi, Qabr al-Ibadi","lng":17.2933,"lat":30.9491,"type":"waystations","region":"Barqa_RE","cornuData":"Qaṣr al-ʿIbādī"},{"id":"YAHUDIYYATAYN_177E307N_S","name":"al-Yahūdiyyatayn","nameAr":"اليهوديتين","search":"al-Yahudiyyatayn","lng":17.7223,"lat":30.7762,"type":"waystations","region":"Barqa_RE","cornuData":"al-Yahūdiyyatayn"},{"id":"QASRATISH_181E305N_S","name":"Qaṣr al-ʿAṭiš","nameAr":"قصر العطش","search":"Qasr al-Atish","lng":18.1975,"lat":30.5411,"type":"waystations","region":"Barqa_RE","cornuData":"Qaṣr al-ʿAṭiš"},{"id":"SABKHAMANHUSHA_186E297N_R","name":"Sabḫaŧ Manhūšā","nameAr":"سبخة منهوشا","search":"Sabkha Manhusha","lng":18.6342,"lat":29.7889,"type":"regions","region":"Barqa_RE","cornuData":"Sabḫaŧ Manhūšā"},{"id":"BARNIQ_200E321N_S","name":"Barnīq","nameAr":"برنيق","search":"Barniq","lng":20.0848,"lat":32.1142,"type":"towns","region":"Barqa_RE","cornuData":"Barnīq"},{"id":"AJDABIYYA_202E304N_S","name":"Aǧdābiyyaŧ","nameAr":"أجدابية","search":"Ajdabiyya","lng":20.2022,"lat":30.467,"type":"towns","region":"Barqa_RE","cornuData":"Aǧdābiyyaŧ"},{"id":"SULUQ_202E314N_S","name":"Sulūq","nameAr":"سلوق","search":"Suluq","lng":20.2483,"lat":31.4018,"type":"waystations","region":"Barqa_RE","cornuData":"Sulūq"},{"id":"BARQA_208E323N_S","name":"Barqaŧ","nameAr":"برقة","search":"Barqa","lng":20.8448,"lat":32.3758,"type":"capitals","region":"Barqa_RE","cornuData":"Barqaŧ"},{"id":"BARQA_208E323N_R","name":"Barqaŧ","nameAr":"برقة","search":"Barqa","lng":20.8448,"lat":32.3758,"type":"regions","region":"Barqa_RE","cornuData":"Barqaŧ"},{"id":"AWJILA_212E289N_S","name":"Awǧilaŧ","nameAr":"أوجلة","search":"Awjila","lng":21.2141,"lat":28.9565,"type":"villages","region":"Barqa_RE","cornuData":"Awǧilaŧ"},{"id":"HALIMAN_222E327N_S","name":"Ḥalīmān","nameAr":"حليمان","search":"Haliman, Jubb Haliman","lng":22.203,"lat":32.779,"type":"waystations","region":"Barqa_RE","cornuData":"Ḥalīmān"},{"id":"WADIMAKHIL_226E322N_W","name":"Wādī Maḫīl","nameAr":"وادي مخيل","search":"Wadi Makhil","lng":22.6205,"lat":32.2648,"type":"waters","region":"Barqa_RE","cornuData":"Wādī Maḫīl"},{"id":"JUBBMAYDAN_233E321N_S","name":"Ǧubb al-Maydān","nameAr":"جب الميدان","search":"Jubb al-Maydan, Jubb al-Maydaan","lng":23.3169,"lat":32.1818,"type":"waystations","region":"Barqa_RE","cornuData":"Ǧubb al-Maydān"},{"id":"JIYADSAGHIR_239E319N_S","name":"Ǧiyād al-Ṣaġīr","nameAr":"جياد الصغير","search":"Jiyad al-Saghir","lng":23.9672,"lat":31.9903,"type":"waystations","region":"Barqa_RE","cornuData":"Ǧiyād al-Ṣaġīr"},{"id":"HAYYABDALLAH_244E318N_S","name":"Ḥayy ʿAbd Allãh","nameAr":"حي عبد الله","search":"Hayy Abd Allah","lng":24.4943,"lat":31.8727,"type":"waystations","region":"Barqa_RE","cornuData":"Ḥayy ʿAbd Allãh"},{"id":"MARJSHAYKH_248E316N_S","name":"Marǧ al-Šayḫ","nameAr":"مرج الشيخ","search":"Marj al-Shaykh","lng":24.8349,"lat":31.6764,"type":"waystations","region":"Barqa_RE","cornuData":"Marǧ al-Šayḫ"},{"id":"AQABA_251E314N_S","name":"al-ʿAqabaŧ","nameAr":"العقبة","search":"al-Aqaba","lng":25.1831,"lat":31.4289,"type":"waystations","region":"Barqa_RE","cornuData":"al-ʿAqabaŧ"},{"id":"KHARAIBABUHALIMA_255E314N_S","name":"Ḫarāʾib Abū Ḥalīmaŧ","nameAr":"خرائب أبو حليمة","search":"Kharaib Abu Halima","lng":25.5101,"lat":31.4158,"type":"waystations","region":"Barqa_RE","cornuData":"Ḫarāʾib Abū Ḥalīmaŧ"},{"id":"KHIRBAQAWM_261E313N_S","name":"Ḫirbaŧ al-Qawm","nameAr":"خربة القوم","search":"Khirba al-Qawm","lng":26.1142,"lat":31.3538,"type":"waystations","region":"Barqa_RE","cornuData":"Ḫirbaŧ al-Qawm"},{"id":"QASRSHAMMAS_263E313N_S","name":"Qaṣr al-Šammās","nameAr":"قصر الشماس","search":"Qasr al-Shammas","lng":26.3701,"lat":31.3242,"type":"waystations","region":"Barqa_RE","cornuData":"Qaṣr al-Šammās"},{"id":"SIKKAHAMMAM_267E311N_S","name":"Sikkaŧ al-Ḥammām","nameAr":"سكة الحمام","search":"Sikka al-Hammam","lng":26.776,"lat":31.1943,"type":"waystations","region":"Barqa_RE","cornuData":"Sikkaŧ al-Ḥammām"},{"id":"JUBBAWSAJ_273E310N_S","name":"Ǧubb al-ʿAwsaǧ","nameAr":"جب العوسج","search":"Jubb al-Awsaj","lng":27.3032,"lat":31.0448,"type":"waystations","region":"Barqa_RE","cornuData":"Ǧubb al-ʿAwsaǧ"},{"id":"RAMADA_276E310N_S","name":"Ramādaŧ","nameAr":"رمادة","search":"Ramada","lng":27.6149,"lat":31.0234,"type":"towns","region":"Barqa_RE","cornuData":"Ramādaŧ"},{"id":"KANAISHADID_279E309N_S","name":"Kanāʾis al-Ḥadīd","nameAr":"كنائس الحديد","search":"Kanais al-Hadid, Kanais al-Harir","lng":27.9477,"lat":30.9145,"type":"waystations","region":"Barqa_RE","cornuData":"Kanāʾis al-Ḥadīd"},{"id":"TAHUNA_283E308N_S","name":"al-Ṭaḥūnaŧ","nameAr":"الطحونة","search":"al-Tahuna","lng":28.3017,"lat":30.8484,"type":"waystations","region":"Barqa_RE","cornuData":"al-Ṭaḥūnaŧ"},{"id":"HANIYYARUM_288E308N_S","name":"Ḥaniyyaŧ al-Rūm","nameAr":"حنية الروم","search":"Haniyya al-Rum, Qusur al-Rum","lng":28.8519,"lat":30.8055,"type":"waystations","region":"Barqa_RE","cornuData":"Ḥaniyyaŧ al-Rūm"},{"id":"DHATHUMAM_293E308N_S","name":"Ḏāt al-Ḥumām","nameAr":"ذات الحمام","search":"Dhat al-Humam, Dhat al-Hammam","lng":29.3021,"lat":30.865,"type":"towns","region":"Barqa_RE","cornuData":"Ḏāt al-Ḥumām"},{"id":"GHADAMIS_094E301N_S","name":"Ġadāmis","nameAr":"غدامس","search":"Ghadamis","lng":9.476,"lat":30.1293,"type":"towns","region":"Barqa_RE","cornuData":"Ġadāmis"},{"id":"BARWAN_485E375N_S","name":"Barwān","nameAr":"بروان","search":"Barwan","lng":48.5598,"lat":37.5706,"type":"towns","region":"Daylam_RE","cornuData":"Barwān"},{"id":"NAHRISBIDHRUDH_488E369N_W","name":"Nahr Isbīḏrūḏ","nameAr":"نهر إسبيذروذ","search":"Nahr Isbidhrudh, Nahr Sabidhrudh","lng":48.8394,"lat":36.9753,"type":"waters","region":"Daylam_RE","cornuData":"Nahr Isbīḏrūḏ"},{"id":"KUHANRUDH_490E377N_S","name":"Kuhanrūḏ","nameAr":"كهنروذ","search":"Kuhanrudh","lng":49.0037,"lat":37.7915,"type":"waystations","region":"Daylam_RE","cornuData":"Kuhanrūḏ"},{"id":"KHASHM_491E374N_S","name":"Ḫašm","nameAr":"خشم","search":"Khashm","lng":49.1867,"lat":37.4863,"type":"towns","region":"Daylam_RE","cornuData":"Ḫašm"},{"id":"JIL_496E371N_R","name":"Ǧīl","nameAr":"جيل","search":"Jil, Jilan","lng":49.6564,"lat":37.1392,"type":"regions","region":"Daylam_RE","cornuData":"Ǧīl"},{"id":"NAHRISBIDHRUDH_496E369N_W","name":"Nahr Isbīḏrūḏ","nameAr":"نهر إسبيذروذ","search":"Nahr Isbidhrudh, Nahr Sabidhrudh","lng":49.6789,"lat":36.9355,"type":"waters","region":"Daylam_RE","cornuData":"Nahr Isbīḏrūḏ"},{"id":"NAHRTALAQANRUDH_501E365N_W","name":"Nahr Ṭālaqānrūḏ","nameAr":"نهر طالقانروذ","search":"Nahr Talaqanrudh","lng":50.1922,"lat":36.529,"type":"waters","region":"Daylam_RE","cornuData":"Nahr Ṭālaqānrūḏ"},{"id":"DAYLAMAN_505E366N_R","name":"Daylamān","nameAr":"ديلمان","search":"Daylaman, al-Daylam","lng":50.5255,"lat":36.6959,"type":"regions","region":"Daylam_RE","cornuData":"Daylamān"},{"id":"TALAQAN_508E361N_R","name":"Ṭalaqān","nameAr":"طلقان","search":"Talaqan","lng":50.8432,"lat":36.1866,"type":"regions","region":"Daylam_RE","cornuData":"Ṭalaqān"},{"id":"TALAQAN_508E361N_S","name":"Ṭalaqān","nameAr":"طلقان","search":"Talaqan","lng":50.8432,"lat":36.1866,"type":"towns","region":"Daylam_RE","cornuData":"Ṭalaqān"},{"id":"KALAR_510E364N_S","name":"Kalār","nameAr":"كلار","search":"Kalar","lng":51.0769,"lat":36.499,"type":"towns","region":"Daylam_RE","cornuData":"Kalār"},{"id":"SAIDABADH_513E363N_S","name":"Saʿīdābāḏ","nameAr":"سعيداباذ","search":"Saidabadh","lng":51.3572,"lat":36.3975,"type":"towns","region":"Daylam_RE","cornuData":"Saʿīdābāḏ"},{"id":"SHALUS_514E366N_S","name":"Šālūs","nameAr":"شالوس","search":"Shalus, Salus","lng":51.4554,"lat":36.6041,"type":"towns","region":"Daylam_RE","cornuData":"Šālūs"},{"id":"JABALRUBANJ_516E360N_O","name":"Ǧabal Rūbanǧ","nameAr":"جبل روبنج","search":"Jabal Rubanj, Ruyanj","lng":51.6376,"lat":36.0318,"type":"sites","region":"Daylam_RE","cornuData":"Ǧabal Rūbanǧ"},{"id":"RUYAN_517E363N_R","name":"al-Rūyān","nameAr":"الرويان","search":"al-Ruyan","lng":51.7108,"lat":36.3624,"type":"regions","region":"Daylam_RE","cornuData":"al-Rūyān"},{"id":"RUYAN_517E363N_S","name":"al-Rūyān","nameAr":"الرويان","search":"al-Ruyan","lng":51.7108,"lat":36.3624,"type":"towns","region":"Daylam_RE","cornuData":"al-Rūyān"},{"id":"AFRIDHIN_517E354N_S","name":"Afrīḏīn","nameAr":"أفريذين","search":"Afridhin","lng":51.7747,"lat":35.4235,"type":"villages","region":"Daylam_RE","cornuData":"Afrīḏīn"},{"id":"NATIL_519E364N_S","name":"Nātil","nameAr":"ناتل","search":"Natil","lng":51.9195,"lat":36.4777,"type":"towns","region":"Daylam_RE","cornuData":"Nātil"},{"id":"NAMAHAND_519E357N_S","name":"Nāmahand","nameAr":"نامهند","search":"Namahand","lng":51.9273,"lat":35.7275,"type":"waystations","region":"Daylam_RE","cornuData":"Nāmahand"},{"id":"KAHDA_520E353N_S","name":"Kahdaŧ","nameAr":"كهدة","search":"Kahda, Kahanda, Kasb","lng":52.0441,"lat":35.3168,"type":"waystations","region":"Daylam_RE","cornuData":"Kahdaŧ"},{"id":"SHALANBA_520E356N_S","name":"Šalanbaŧ","nameAr":"شلنبة","search":"Shalanba","lng":52.0472,"lat":35.6845,"type":"towns","region":"Daylam_RE","cornuData":"Šalanbaŧ"},{"id":"BALUR_520E358N_S","name":"Balūr","nameAr":"بلور","search":"Balur, Bulur","lng":52.0667,"lat":35.8191,"type":"waystations","region":"Daylam_RE","cornuData":"Balūr"},{"id":"ASAK_522E358N_S","name":"Asak","nameAr":"أسك","search":"Asak, Ashk","lng":52.2162,"lat":35.8734,"type":"waystations","region":"Daylam_RE","cornuData":"Asak"},{"id":"ALHAM_522E365N_S","name":"Alham","nameAr":"ألهم","search":"Alham","lng":52.2341,"lat":36.5641,"type":"towns","region":"Daylam_RE","cornuData":"Alham"},{"id":"KHUWAR_524E352N_S","name":"al-Ḫuwār","nameAr":"الخوار","search":"al-Khuwar","lng":52.4086,"lat":35.2621,"type":"towns","region":"Daylam_RE","cornuData":"al-Ḫuwār"},{"id":"AMUL_524E364N_S","name":"Āmul","nameAr":"آمل","search":"Amul","lng":52.4086,"lat":36.4226,"type":"capitals","region":"Daylam_RE","cornuData":"Āmul"},{"id":"MILA_525E364N_S","name":"Mīlaŧ","nameAr":"ميلة","search":"Mila","lng":52.5527,"lat":36.4708,"type":"towns","region":"Daylam_RE","cornuData":"Mīlaŧ"},{"id":"JABALQARIN_525E360N_O","name":"Ǧabal Qārīn","nameAr":"جبل قارين","search":"Jabal Qarin","lng":52.5597,"lat":36.0179,"type":"sites","region":"Daylam_RE","cornuData":"Ǧabal Qārīn"},{"id":"TABARISTAN_526E363N_R","name":"Ṭabaristān","nameAr":"طبرستان","search":"Tabaristan","lng":52.6033,"lat":36.3473,"type":"regions","region":"Daylam_RE","cornuData":"Ṭabaristān"},{"id":"QARYAMILH_526E352N_S","name":"Qaryaŧ al-Milḥ","nameAr":"قرية الملح","search":"Qarya al-Milh","lng":52.636,"lat":35.2621,"type":"villages","region":"Daylam_RE","cornuData":"Qaryaŧ al-Milḥ"},{"id":"MAMATIR_527E365N_S","name":"Māmaṭīr","nameAr":"مامطير","search":"Mamatir","lng":52.7466,"lat":36.5171,"type":"towns","region":"Daylam_RE","cornuData":"Māmaṭīr"},{"id":"SHIHMAR_528E361N_S","name":"Šihmār","nameAr":"شهمار","search":"Shihmar, Sihmar","lng":52.8665,"lat":36.1611,"type":"towns","region":"Daylam_RE","cornuData":"Šihmār"},{"id":"FADUSBAN_529E356N_R","name":"Fādūsbān","nameAr":"فادوسبان","search":"Fadusban, Qadustan, Qadusiyan","lng":52.9639,"lat":35.6127,"type":"regions","region":"Daylam_RE","cornuData":"Fādūsbān"},{"id":"RASKALB_530E353N_S","name":"Raʾs al-Kalb","nameAr":"رأس الكلب","search":"Ras al-Kalb","lng":53.076,"lat":35.3765,"type":"villages","region":"Daylam_RE","cornuData":"Raʾs al-Kalb"},{"id":"SIMNAN_534E354N_S","name":"Simnān","nameAr":"سمنان","search":"Simnan","lng":53.4086,"lat":35.4951,"type":"towns","region":"Daylam_RE","cornuData":"Simnān"},{"id":"MIHRAWAN_536E366N_S","name":"Mihrawān","nameAr":"مهروان","search":"Mihrawan","lng":53.6959,"lat":36.6847,"type":"villages","region":"Daylam_RE","cornuData":"Mihrawān"},{"id":"RIBATALIYYABADH_537E357N_S","name":"Rībāṭ ʿAliyyābāḏ","nameAr":"ريباط علياباذ","search":"Ribat Aliyyabadh","lng":53.7349,"lat":35.7442,"type":"waystations","region":"Daylam_RE","cornuData":"Rībāṭ ʿAliyyābāḏ"},{"id":"JARMJUWI_540E359N_S","name":"Ǧarmǧuwī","nameAr":"جرمجوي","search":"Jarmjuwi","lng":54.0425,"lat":35.9734,"type":"waystations","region":"Daylam_RE","cornuData":"Ǧarmǧuwī"},{"id":"ABASKUN_540E370N_S","name":"Ābaskūn","nameAr":"آبسكون","search":"Abaskun","lng":54.0433,"lat":37.0277,"type":"towns","region":"Daylam_RE","cornuData":"Ābaskūn"},{"id":"TAMISHA_540E367N_S","name":"Ṭamīšaŧ","nameAr":"طميشة","search":"Tamisha, Tamisa","lng":54.0557,"lat":36.7312,"type":"towns","region":"Daylam_RE","cornuData":"Ṭamīšaŧ"},{"id":"QUMIS_541E361N_R","name":"Qūmis","nameAr":"قومس","search":"Qumis","lng":54.132,"lat":36.1121,"type":"regions","region":"Daylam_RE","cornuData":"Qūmis"},{"id":"NAMIYA_543E367N_S","name":"Nāmiyaŧ","nameAr":"نامية","search":"Namiya","lng":54.3252,"lat":36.7749,"type":"towns","region":"Daylam_RE","cornuData":"Nāmiyaŧ"},{"id":"DAMGHAN_543E361N_S","name":"al-Damġān","nameAr":"الدمغان","search":"al-Damghan","lng":54.375,"lat":36.1309,"type":"capitals","region":"Daylam_RE","cornuData":"al-Damġān"},{"id":"ASTARABADH_544E367N_S","name":"Astārabāḏ","nameAr":"أستارباذ","search":"Astarabadh","lng":54.4701,"lat":36.7886,"type":"towns","region":"Daylam_RE","cornuData":"Astārabāḏ"},{"id":"RIBATALI_545E372N_S","name":"Ribāṭ ʿAlī","nameAr":"رباط علي","search":"Ribat Ali","lng":54.5137,"lat":37.2261,"type":"waystations","region":"Daylam_RE","cornuData":"Ribāṭ ʿAlī"},{"id":"RIBATDIHISTAN_546E382N_S","name":"Ribāṭ Dihistān","nameAr":"رباط دهستان","search":"Ribat Dihistan","lng":54.6147,"lat":38.2667,"type":"waystations","region":"Daylam_RE","cornuData":"Ribāṭ Dihistān"},{"id":"BAYLAMAK_547E378N_S","name":"Baylamak","nameAr":"بيلمك","search":"Baylamak, Salmak","lng":54.727,"lat":37.8886,"type":"waystations","region":"Daylam_RE","cornuData":"Baylamak"},{"id":"RIBATAMIR_547E375N_S","name":"Ribāṭ al-Amīr","nameAr":"رباط الأمير","search":"Ribat al-Amir","lng":54.7644,"lat":37.584,"type":"waystations","region":"Daylam_RE","cornuData":"Ribāṭ al-Amīr"},{"id":"HADDADA_548E362N_S","name":"al-Ḥaddādaŧ","nameAr":"الحدادة","search":"al-Haddada","lng":54.8018,"lat":36.2852,"type":"villages","region":"Daylam_RE","cornuData":"al-Ḥaddādaŧ"},{"id":"RIBATHAFS_548E368N_S","name":"Ribāṭ Ḥafṣ","nameAr":"رباط حفص","search":"Ribat Hafs","lng":54.889,"lat":36.8176,"type":"waystations","region":"Daylam_RE","cornuData":"Ribāṭ Ḥafṣ"},{"id":"JURJAN_549E373N_R","name":"Ǧurǧān","nameAr":"جرجان","search":"Jurjan","lng":54.9903,"lat":37.3327,"type":"regions","region":"Daylam_RE","cornuData":"Ǧurǧān"},{"id":"BISTAM_550E364N_S","name":"Bisṭām","nameAr":"بسطام","search":"Bistam","lng":55.072,"lat":36.4595,"type":"towns","region":"Daylam_RE","cornuData":"Bisṭām"},{"id":"BADHASH_551E363N_S","name":"Baḏaš","nameAr":"بذش","search":"Badhash","lng":55.1788,"lat":36.3329,"type":"waystations","region":"Daylam_RE","cornuData":"Baḏaš"},{"id":"SHAHRASTAN_552E371N_S","name":"Šahrastān","nameAr":"شهرستان","search":"Shahrastan, Jurjan","lng":55.206,"lat":37.1909,"type":"metropoles","region":"Daylam_RE","cornuData":"Šahrastān"},{"id":"ZIRADABADH_553E366N_S","name":"Ziradābāḏ","nameAr":"زرداباذ","search":"Ziradabadh, Zirdabadh","lng":55.308,"lat":36.658,"type":"waystations","region":"Daylam_RE","cornuData":"Ziradābāḏ"},{"id":"NAHRKHURMARUDH_553E370N_W","name":"Nahr Ḫurmārūḏ","nameAr":"نهر خرماروذ","search":"Nahr Khurmarudh","lng":55.3836,"lat":37.0645,"type":"waters","region":"Daylam_RE","cornuData":"Nahr Ḫurmārūḏ"},{"id":"DIHISTAN_556E390N_R","name":"Dihistān","nameAr":"دهستان","search":"Dihistan","lng":55.6347,"lat":39.0946,"type":"regions","region":"Daylam_RE","cornuData":"Dihistān"},{"id":"MURJAN_556E363N_S","name":"al-Murǧān","nameAr":"المرجان","search":"al-Murjan","lng":55.6709,"lat":36.3934,"type":"waystations","region":"Daylam_RE","cornuData":"al-Murǧān"},{"id":"AKHUR_557E391N_S","name":"Āḫur","nameAr":"آخر","search":"Akhur","lng":55.7128,"lat":39.1983,"type":"capitals","region":"Daylam_RE","cornuData":"Āḫur"},{"id":"BIYAR_558E360N_S","name":"Biyār","nameAr":"بيار","search":"Biyar","lng":55.8699,"lat":36.0582,"type":"towns","region":"Daylam_RE","cornuData":"Biyār"},{"id":"DINAZARI_559E375N_S","name":"Dīnāzārī","nameAr":"دينازاري","search":"Dinazari","lng":55.9988,"lat":37.5746,"type":"waystations","region":"Daylam_RE","cornuData":"Dīnāzārī"},{"id":"HAFDAR_561E363N_S","name":"Hafdar","nameAr":"هفدر","search":"Hafdar","lng":56.1328,"lat":36.3663,"type":"waystations","region":"Daylam_RE","cornuData":"Hafdar"},{"id":"AJGH_569E375N_S","name":"Aǧġ","nameAr":"أجغ","search":"Ajgh","lng":56.952,"lat":37.5144,"type":"villages","region":"Daylam_RE","cornuData":"Aǧġ"},{"id":"RIBATABUSAHL_574E401N_S","name":"Ribāṭ Abū Sahl","nameAr":"رباط أبو سهل","search":"Ribat Abu Sahl","lng":57.4515,"lat":40.1865,"type":"waystations","region":"Daylam_RE","cornuData":"Ribāṭ Abū Sahl"},{"id":"FARFARUN_282E269N_R","name":"Farfārūn","nameAr":"فرفارون","search":"Farfarun","lng":28.2011,"lat":26.9637,"type":"regions","region":"Misr_RE","cornuData":"Farfārūn"},{"id":"DAKHILA_287E255N_R","name":"al-Dāḫilaŧ","nameAr":"الداخلة","search":"al-Dakhila","lng":28.739,"lat":25.5418,"type":"regions","region":"Misr_RE","cornuData":"al-Dāḫilaŧ"},{"id":"QASR_288E256N_S","name":"al-Qaṣr","nameAr":"القصر","search":"al-Qasr","lng":28.8341,"lat":25.6703,"type":"villages","region":"Misr_RE","cornuData":"al-Qaṣr"},{"id":"BANHASA_288E282N_S","name":"Banhasá","nameAr":"بنهسى","search":"Banhasa","lng":28.8371,"lat":28.2873,"type":"villages","region":"Misr_RE","cornuData":"Banhasá"},{"id":"QALAMUN_289E254N_S","name":"Qalamūn","nameAr":"قلمون","search":"Qalamun","lng":28.9229,"lat":25.4477,"type":"villages","region":"Misr_RE","cornuData":"Qalamūn"},{"id":"WAHAT_294E265N_R","name":"al-Wāḥāt","nameAr":"الواحات","search":"al-Wahat","lng":29.4686,"lat":26.524,"type":"regions","region":"Misr_RE","cornuData":"al-Wāḥāt"},{"id":"BUMINA_297E309N_S","name":"Būmīnaŧ","nameAr":"بومينة","search":"Bumina, Bumina","lng":29.7157,"lat":30.9326,"type":"waystations","region":"Misr_RE","cornuData":"Būmīnaŧ"},{"id":"ISKANDARIYYA_299E311N_S","name":"al-Iskandariyyaŧ","nameAr":"الإسكندرية","search":"al-Iskandariyya","lng":29.9098,"lat":31.1949,"type":"capitals","region":"Misr_RE","cornuData":"al-Iskandariyyaŧ"},{"id":"BUHAYRAMARYUT_299E311N_W","name":"Buḥayraŧ Maryūṭ","nameAr":"بحيرة مريوط","search":"Buhayra Maryut","lng":29.9145,"lat":31.1214,"type":"waters","region":"Misr_RE","cornuData":"Buḥayraŧ Maryūṭ"},{"id":"KARYUN_301E311N_S","name":"al-Karyūn","nameAr":"الكريون","search":"al-Karyun, Kiryawn","lng":30.1314,"lat":31.1429,"type":"towns","region":"Misr_RE","cornuData":"al-Karyūn"},{"id":"KHALIJISKANDARIYYA_301E311N_W","name":"Ḫalīǧ al-Iskandariyyaŧ","nameAr":"خليج الإسكندرية","search":"Khalij al-Iskandariyya","lng":30.1582,"lat":31.1014,"type":"waters","region":"Misr_RE","cornuData":"Ḫalīǧ al-Iskandariyyaŧ"},{"id":"JANADIL_302E196N_O","name":"al-Ǧanādil","nameAr":"الجنادل","search":"al-Janadil","lng":30.2533,"lat":19.6303,"type":"sites","region":"Misr_RE","cornuData":"al-Ǧanādil"},{"id":"BAHRRUM_302E322N_W","name":"Baḥr al-Rūm","nameAr":"بحر الروم","search":"Bahr al-Rum","lng":30.287,"lat":32.203,"type":"waters","region":"Misr_RE","cornuData":"Baḥr al-Rūm"},{"id":"BARSIQ_302E310N_S","name":"Barsīq","nameAr":"برسيق","search":"Barsiq","lng":30.2993,"lat":31.0815,"type":"towns","region":"Misr_RE","cornuData":"Barsīq"},{"id":"MALIDAS_303E312N_R","name":"al-Malīdās","nameAr":"المليداس","search":"al-Malidas, al-Malaydis","lng":30.3799,"lat":31.2423,"type":"regions","region":"Misr_RE","cornuData":"al-Malīdās"},{"id":"RASHID_303E314N_S","name":"Rašīd","nameAr":"رشيد","search":"Rashid","lng":30.3799,"lat":31.413,"type":"towns","region":"Misr_RE","cornuData":"Rašīd"},{"id":"HAWFGHARBI_304E307N_R","name":"al-Ḥawf al-Ġarbī","nameAr":"الحوف الغربي","search":"al-Hawf al-Gharbi","lng":30.4374,"lat":30.7527,"type":"regions","region":"Misr_RE","cornuData":"al-Ḥawf al-Ġarbī"},{"id":"QARTASA_304E310N_S","name":"Qarṭasā","nameAr":"قرطسا","search":"Qartasa","lng":30.4411,"lat":31.0566,"type":"villages","region":"Misr_RE","cornuData":"Qarṭasā"},{"id":"DAYRUT_304E312N_S","name":"Dayrūṭ","nameAr":"ديروط","search":"Dayrut","lng":30.4454,"lat":31.2506,"type":"towns","region":"Misr_RE","cornuData":"Dayrūṭ"},{"id":"DAMANHUR_304E310N_S","name":"Damanhūr","nameAr":"دمنهور","search":"Damanhur","lng":30.4587,"lat":31.0386,"type":"towns","region":"Misr_RE","cornuData":"Damanhūr"},{"id":"BALHIB_304E312N_S","name":"Balhīb","nameAr":"بلهيب","search":"Balhib","lng":30.463,"lat":31.2851,"type":"towns","region":"Misr_RE","cornuData":"Balhīb"},{"id":"SANBADHA_304E311N_S","name":"Sanbāḏaŧ","nameAr":"سنباذة","search":"Sanbadha","lng":30.4727,"lat":31.1907,"type":"towns","region":"Misr_RE","cornuData":"Sanbāḏaŧ"},{"id":"SANDIYUN_304E312N_S","name":"Sandiyūn","nameAr":"سنديون","search":"Sandiyun","lng":30.4761,"lat":31.2539,"type":"villages","region":"Misr_RE","cornuData":"Sandiyūn"},{"id":"MASIL_304E311N_R","name":"Maṣīl","nameAr":"مصيل","search":"Masil","lng":30.4784,"lat":31.1196,"type":"regions","region":"Misr_RE","cornuData":"Maṣīl"},{"id":"FISHA_304E311N_S","name":"Fīšaŧ","nameAr":"فيشة","search":"Fisha","lng":30.5,"lat":31.1313,"type":"villages","region":"Misr_RE","cornuData":"Fīšaŧ"},{"id":"BAYRIS_305E245N_S","name":"Bayrīs","nameAr":"بيريس","search":"Bayris","lng":30.5046,"lat":24.5915,"type":"towns","region":"Misr_RE","cornuData":"Bayrīs"},{"id":"FUWA_305E312N_S","name":"Fuwaŧ","nameAr":"فوة","search":"Fuwa","lng":30.5065,"lat":31.2237,"type":"towns","region":"Misr_RE","cornuData":"Fuwaŧ"},{"id":"DANSHAL_305E309N_S","name":"Danšāl","nameAr":"دنشال","search":"Danshal","lng":30.5114,"lat":30.9594,"type":"villages","region":"Misr_RE","cornuData":"Danšāl"},{"id":"KHARIJA_305E249N_R","name":"al-Ḫāriǧaŧ","nameAr":"الخارجة","search":"al-Kharija","lng":30.5169,"lat":24.9874,"type":"regions","region":"Misr_RE","cornuData":"al-Ḫāriǧaŧ"},{"id":"BADAQUN_305E308N_R","name":"al-Badaqūn","nameAr":"البدقون","search":"al-Badaqun","lng":30.5284,"lat":30.8984,"type":"regions","region":"Misr_RE","cornuData":"al-Badaqūn"},{"id":"SHIRAK_305E309N_R","name":"al-Širāk","nameAr":"الشراك","search":"al-Shirak","lng":30.5734,"lat":30.9906,"type":"regions","region":"Misr_RE","cornuData":"al-Širāk"},{"id":"MAHALLAABUKHURASHA_306E310N_S","name":"Maḥallaŧ Abū Ḫurāšaŧ","nameAr":"محلة أبو خراشة","search":"Mahalla Abu Khurasha","lng":30.6158,"lat":31.025,"type":"villages","region":"Misr_RE","cornuData":"Maḥallaŧ Abū Ḫurāšaŧ"},{"id":"IKHNA_306E314N_R","name":"Iḫnā","nameAr":"إخنا","search":"Ikhna","lng":30.6568,"lat":31.4679,"type":"regions","region":"Misr_RE","cornuData":"Iḫnā"},{"id":"BAHNASA_306E286N_R","name":"Bahnasá","nameAr":"بهنسى","search":"Bahnasa","lng":30.6645,"lat":28.6007,"type":"regions","region":"Misr_RE","cornuData":"Bahnasá"},{"id":"KHARIBTA_306E307N_R","name":"Ḫaribtā","nameAr":"خربتا","search":"Kharibta","lng":30.6654,"lat":30.7528,"type":"regions","region":"Misr_RE","cornuData":"Ḫaribtā"},{"id":"FARNWA_306E309N_S","name":"Farnwaŧ","nameAr":"فرنوة","search":"Farnwa","lng":30.669,"lat":30.9872,"type":"villages","region":"Misr_RE","cornuData":"Farnwaŧ"},{"id":"TAHA_306E282N_S","name":"Ṭaḥā","nameAr":"طحا","search":"Taha","lng":30.6913,"lat":28.2731,"type":"towns","region":"Misr_RE","cornuData":"Ṭaḥā"},{"id":"SAFIYYA_306E310N_S","name":"al-Ṣāfiyyaŧ","nameAr":"الصافية","search":"al-Safiyya","lng":30.6995,"lat":31.0431,"type":"villages","region":"Misr_RE","cornuData":"al-Ṣāfiyyaŧ"},{"id":"FAYYUM_306E294N_S","name":"al-Fayyūm","nameAr":"الفيوم","search":"al-Fayyum","lng":30.6998,"lat":29.4345,"type":"capitals","region":"Misr_RE","cornuData":"al-Fayyūm"},{"id":"TANDA_307E277N_S","name":"Tandaŧ","nameAr":"تندة","search":"Tanda","lng":30.7011,"lat":27.7648,"type":"towns","region":"Misr_RE","cornuData":"Tandaŧ"},{"id":"DAYYAY_307E310N_S","name":"Dayyāy","nameAr":"دياي","search":"Dayyay","lng":30.7052,"lat":31.0192,"type":"towns","region":"Misr_RE","cornuData":"Dayyāy"},{"id":"MAHALLANUQAYDA_307E307N_S","name":"Maḥallaŧ Nuqaydaŧ","nameAr":"محلة نقيدة","search":"Mahalla Nuqayda","lng":30.708,"lat":30.7841,"type":"villages","region":"Misr_RE","cornuData":"Maḥallaŧ Nuqaydaŧ"},{"id":"NASTARAWA_307E314N_S","name":"Nastarāwaŧ","nameAr":"نستراوة","search":"Nastarawa, Nastaraw","lng":30.708,"lat":31.4878,"type":"towns","region":"Misr_RE","cornuData":"Nastarāwaŧ"},{"id":"SANHUR_307E311N_S","name":"Sanhūr","nameAr":"سنهور","search":"Sanhur","lng":30.7083,"lat":31.1628,"type":"towns","region":"Misr_RE","cornuData":"Sanhūr"},{"id":"SHABAS_307E310N_R","name":"Šabās","nameAr":"شباس","search":"Shabas","lng":30.7231,"lat":31.0899,"type":"regions","region":"Misr_RE","cornuData":"Šabās"},{"id":"SHABUR_307E308N_S","name":"Šābūr","nameAr":"شابور","search":"Shabur","lng":30.7337,"lat":30.8032,"type":"villages","region":"Misr_RE","cornuData":"Šābūr"},{"id":"RAFIQA_307E306N_S","name":"al-Rāfiqaŧ","nameAr":"الرافقة","search":"al-Rafiqa","lng":30.7359,"lat":30.6947,"type":"villages","region":"Misr_RE","cornuData":"al-Rāfiqaŧ"},{"id":"DUNQALA_307E180N_S","name":"Dunqalaŧ","nameAr":"دنقلة","search":"Dunqala, Dunqula, Dumqula","lng":30.7376,"lat":18.0435,"type":"towns","region":"Misr_RE","cornuData":"Dunqalaŧ"},{"id":"SA_307E309N_S","name":"Ṣāʾ","nameAr":"صاء","search":"Sa","lng":30.7385,"lat":30.9591,"type":"villages","region":"Misr_RE","cornuData":"Ṣāʾ"},{"id":"USHMUNAYN_307E278N_S","name":"al-Ušmūnayn","nameAr":"الأشمونين","search":"al-Ushmunayn","lng":30.7558,"lat":27.8562,"type":"towns","region":"Misr_RE","cornuData":"al-Ušmūnayn"},{"id":"KUMSHARIK_307E306N_S","name":"Kūm Šarīk","nameAr":"كوم شريك","search":"Kum Sharik","lng":30.7564,"lat":30.6374,"type":"waystations","region":"Misr_RE","cornuData":"Kūm Šarīk"},{"id":"BABIJ_307E308N_S","name":"Babīǧ","nameAr":"ببيج","search":"Babij","lng":30.7564,"lat":30.8747,"type":"towns","region":"Misr_RE","cornuData":"Babīǧ"},{"id":"QAYS_307E285N_S","name":"al-Qays","nameAr":"القيس","search":"al-Qays","lng":30.7869,"lat":28.5262,"type":"towns","region":"Misr_RE","cornuData":"al-Qays"},{"id":"BISTAMA_307E306N_S","name":"Bistāmaŧ","nameAr":"بستامة","search":"Bistama","lng":30.7889,"lat":30.6208,"type":"towns","region":"Misr_RE","cornuData":"Bistāmaŧ"},{"id":"TANUB_307E306N_S","name":"Ṭanūb","nameAr":"طنوب","search":"Tanub, Tunub","lng":30.7894,"lat":30.6727,"type":"villages","region":"Misr_RE","cornuData":"Ṭanūb"},{"id":"IKHNA_307E315N_S","name":"Iḫnā","nameAr":"إخنا","search":"Ikhna, Ajna","lng":30.79,"lat":31.5198,"type":"towns","region":"Misr_RE","cornuData":"Iḫnā"},{"id":"BUHAYRABURULLUS_308E314N_W","name":"Buḥayraŧ al-Burullus","nameAr":"بحيرة البرلس","search":"Buhayra al-Burullus","lng":30.8071,"lat":31.4596,"type":"waters","region":"Misr_RE","cornuData":"Buḥayraŧ al-Burullus"},{"id":"TARNUT_308E304N_S","name":"Tarnūṭ","nameAr":"ترنوط","search":"Tarnut","lng":30.8108,"lat":30.4009,"type":"villages","region":"Misr_RE","cornuData":"Tarnūṭ"},{"id":"QULAYBUMMAL_308E308N_S","name":"Qulayb al-`Ummāl","nameAr":"قليب العمال","search":"Qulayb al-Ummal","lng":30.8224,"lat":30.8682,"type":"villages","region":"Misr_RE","cornuData":"Qulayb al-`Ummāl"},{"id":"TIDA_308E312N_R","name":"Tīdaŧ","nameAr":"تيدة","search":"Tida","lng":30.827,"lat":31.2387,"type":"regions","region":"Misr_RE","cornuData":"Tīdaŧ"},{"id":"FAYYUM_308E293N_R","name":"al-Fayyūm","nameAr":"الفيوم","search":"al-Fayyum","lng":30.8427,"lat":29.3592,"type":"regions","region":"Misr_RE","cornuData":"al-Fayyūm"},{"id":"ANSINA_308E279N_S","name":"Anṣinā","nameAr":"أنصنا","search":"Ansina","lng":30.8468,"lat":27.9013,"type":"towns","region":"Misr_RE","cornuData":"Anṣinā"},{"id":"MAHALLASURAD_308E309N_S","name":"Maḥallaŧ Ṣurad","nameAr":"محلة صرد","search":"Mahalla Surad","lng":30.8512,"lat":30.9696,"type":"villages","region":"Misr_RE","cornuData":"Maḥallaŧ Ṣurad"},{"id":"SUMUSTA_308E289N_S","name":"Sumusṭā","nameAr":"سمسطا","search":"Sumusta","lng":30.8876,"lat":28.9601,"type":"towns","region":"Misr_RE","cornuData":"Sumusṭā"},{"id":"JURASIYYAT_308E303N_S","name":"al-Ǧurasiyyāt","nameAr":"الجرسيات","search":"al-Jurasiyyat","lng":30.8916,"lat":30.3416,"type":"villages","region":"Misr_RE","cornuData":"al-Ǧurasiyyāt"},{"id":"AFRAHUN_309E311N_R","name":"al-Afrāḥūn","nameAr":"الأفراحون","search":"al-Afrahun","lng":30.9124,"lat":31.1914,"type":"regions","region":"Misr_RE","cornuData":"al-Afrāḥūn"},{"id":"MANUF_309E304N_S","name":"Manūf","nameAr":"منوف","search":"Manuf","lng":30.9195,"lat":30.455,"type":"towns","region":"Misr_RE","cornuData":"Manūf"},{"id":"MAHALLAMAHRUM_309E307N_S","name":"Maḥallaŧ al-Maḥrūm","nameAr":"محلة المحروم","search":"Mahalla al-Mahrum","lng":30.9235,"lat":30.7957,"type":"towns","region":"Misr_RE","cornuData":"Maḥallaŧ al-Maḥrūm"},{"id":"SAKHA_309E310N_S","name":"Ṣaḫā","nameAr":"صخا","search":"Sakha","lng":30.9252,"lat":31.0864,"type":"towns","region":"Misr_RE","cornuData":"Ṣaḫā"},{"id":"FISHAIBNSULAYM_309E307N_S","name":"Fīšaŧ Ibn Sulaym","nameAr":"فيشة إبن سليم","search":"Fisha Ibn Sulaym","lng":30.9263,"lat":30.7634,"type":"villages","region":"Misr_RE","cornuData":"Fīšaŧ Ibn Sulaym"},{"id":"BUNDARIYYA_309E307N_S","name":"al-Bundāriyyaŧ","nameAr":"البندارية","search":"al-Bundariyya","lng":30.928,"lat":30.7204,"type":"towns","region":"Misr_RE","cornuData":"al-Bundāriyyaŧ"},{"id":"TUWWA_309E306N_S","name":"Ṭuwwaŧ","nameAr":"طوة","search":"Tuwwa","lng":30.9332,"lat":30.6807,"type":"villages","region":"Misr_RE","cornuData":"Ṭuwwaŧ"},{"id":"MARIS_309E203N_R","name":"Marīs","nameAr":"مريس","search":"Maris","lng":30.9399,"lat":20.3562,"type":"regions","region":"Misr_RE","cornuData":"Marīs"},{"id":"NAHRNIL_309E217N_W","name":"Nahr al-Nīl","nameAr":"نهر النيل","search":"Nahr al-Nil","lng":30.9429,"lat":21.755,"type":"waters","region":"Misr_RE","cornuData":"Nahr al-Nīl"},{"id":"MANUFULIYA_309E308N_R","name":"Manūf al-ʿUliyā","nameAr":"منوف العليا","search":"Manuf al-Uliya","lng":30.9522,"lat":30.8705,"type":"regions","region":"Misr_RE","cornuData":"Manūf al-ʿUliyā"},{"id":"AHNAS_309E291N_S","name":"Ahnās","nameAr":"أهناس","search":"Ahnas","lng":30.9599,"lat":29.1312,"type":"towns","region":"Misr_RE","cornuData":"Ahnās"},{"id":"MISIR_309E310N_S","name":"Misīr","nameAr":"مسير","search":"Misir","lng":30.9779,"lat":31.0516,"type":"villages","region":"Misr_RE","cornuData":"Misīr"},{"id":"LAHUN_309E292N_S","name":"al-Lāhūn","nameAr":"اللاهون","search":"al-Lahun","lng":30.9912,"lat":29.249,"type":"towns","region":"Misr_RE","cornuData":"al-Lāhūn"},{"id":"BURULLUS_309E315N_S","name":"Burullus","nameAr":"برلس","search":"Burullus, Barullus","lng":30.9961,"lat":31.5861,"type":"towns","region":"Misr_RE","cornuData":"Burullus"},{"id":"NAHRNIL_310E288N_W","name":"Nahr al-Nīl","nameAr":"نهر النيل","search":"Nahr al-Nil","lng":31.006,"lat":28.8913,"type":"waters","region":"Misr_RE","cornuData":"Nahr al-Nīl"},{"id":"DHATSAHIL_310E302N_S","name":"Ḏāt al-Sāḥil","nameAr":"ذات الساحل","search":"Dhat al-Sahil","lng":31.0123,"lat":30.2213,"type":"waystations","region":"Misr_RE","cornuData":"Ḏāt al-Sāḥil"},{"id":"MALIJ_310E305N_S","name":"Malīǧ","nameAr":"مليج","search":"Malij","lng":31.0134,"lat":30.5808,"type":"towns","region":"Misr_RE","cornuData":"Malīǧ"},{"id":"BATNRIF_310E308N_R","name":"Baṭn al-Rīf","nameAr":"بطن الريف","search":"Batn al-Rif","lng":31.0203,"lat":30.8529,"type":"regions","region":"Misr_RE","cornuData":"Baṭn al-Rīf"},{"id":"SUBKABID_310E304N_S","name":"Subk al-ʿAbīd","nameAr":"سبك العبيد","search":"Subk al-Abid","lng":31.0526,"lat":30.4327,"type":"villages","region":"Misr_RE","cornuData":"Subk al-ʿAbīd"},{"id":"SHATNUF_310E302N_S","name":"Šaṭnūf","nameAr":"شطنوف","search":"Shatnuf","lng":31.0635,"lat":30.2331,"type":"towns","region":"Misr_RE","cornuData":"Šaṭnūf"},{"id":"TATA_310E306N_S","name":"Ṭaṭāʾ","nameAr":"ططاء","search":"Tata","lng":31.0897,"lat":30.6876,"type":"towns","region":"Misr_RE","cornuData":"Ṭaṭāʾ"},{"id":"TANTITA_311E302N_S","name":"Tantītā","nameAr":"تنتيتا","search":"Tantita, Tant","lng":31.1016,"lat":30.2763,"type":"villages","region":"Misr_RE","cornuData":"Tantītā"},{"id":"DIJWA_311E303N_S","name":"Diǧwaŧ","nameAr":"دجوة","search":"Dijwa","lng":31.1062,"lat":30.3701,"type":"towns","region":"Misr_RE","cornuData":"Diǧwaŧ"},{"id":"BUSIR_311E292N_S","name":"Būṣīr","nameAr":"بوصير","search":"Busir, Busir al-Fayyum, Abusir, Busir Quridus, Busir al-Ashmunayn","lng":31.1068,"lat":29.2763,"type":"towns","region":"Misr_RE","cornuData":"Būṣīr"},{"id":"WASIM_311E301N_S","name":"Wasīm","nameAr":"وسيم","search":"Wasim","lng":31.109,"lat":30.1214,"type":"towns","region":"Misr_RE","cornuData":"Wasīm"},{"id":"MAHALLAKABIRA_311E309N_S","name":"Maḥallaŧ al-Kabīraŧ","nameAr":"محلة الكبيرة","search":"Mahalla al-Kabira","lng":31.1466,"lat":30.9733,"type":"towns","region":"Misr_RE","cornuData":"Maḥallaŧ al-Kabīraŧ"},{"id":"DALAS_311E292N_S","name":"Dalāṣ","nameAr":"دلاص","search":"Dalas, Dilas","lng":31.1614,"lat":29.2152,"type":"towns","region":"Misr_RE","cornuData":"Dalāṣ"},{"id":"BANHAASAL_311E304N_S","name":"Banhā al-ʿAsal","nameAr":"بنها العسل","search":"Banha al-Asal","lng":31.1614,"lat":30.4364,"type":"towns","region":"Misr_RE","cornuData":"Banhā al-ʿAsal"},{"id":"SANDAFA_311E309N_S","name":"Ṣandafā","nameAr":"صندفا","search":"Sandafa","lng":31.1643,"lat":30.9689,"type":"towns","region":"Misr_RE","cornuData":"Ṣandafā"},{"id":"ATRIB_311E304N_R","name":"Atrīb","nameAr":"أتريب","search":"Atrib","lng":31.1722,"lat":30.4595,"type":"regions","region":"Misr_RE","cornuData":"Atrīb"},{"id":"ATRIB_311E304N_S","name":"Atrīb","nameAr":"أتريب","search":"Atrib","lng":31.1722,"lat":30.4595,"type":"towns","region":"Misr_RE","cornuData":"Atrīb"},{"id":"ASYUT_311E271N_S","name":"Asyūṭ","nameAr":"أسيوط","search":"Asyut","lng":31.1849,"lat":27.1792,"type":"towns","region":"Misr_RE","cornuData":"Asyūṭ"},{"id":"SARDUS_311E301N_S","name":"Sardūs","nameAr":"سردوس","search":"Sardus","lng":31.1865,"lat":30.1628,"type":"towns","region":"Misr_RE","cornuData":"Sardūs"},{"id":"JIZA_312E300N_S","name":"al-Ǧīzaŧ","nameAr":"الجيزة","search":"al-Jiza","lng":31.2018,"lat":30.0065,"type":"towns","region":"Misr_RE","cornuData":"al-Ǧīzaŧ"},{"id":"ZIFTAJAWAD_312E307N_S","name":"Ziftā Ǧawād","nameAr":"زفتا جواد","search":"Zifta Jawad","lng":31.2109,"lat":30.7072,"type":"towns","region":"Misr_RE","cornuData":"Ziftā Ǧawād"},{"id":"JAZIRA_312E300N_S","name":"al-Ǧazīraŧ","nameAr":"الجزيرة","search":"al-Jazira","lng":31.2112,"lat":30.0444,"type":"quarters","region":"Misr_RE","cornuData":"al-Ǧazīraŧ"},{"id":"DAMSIS_312E308N_R","name":"Damsīs","nameAr":"دمسيس","search":"Damsis","lng":31.224,"lat":30.8204,"type":"regions","region":"Misr_RE","cornuData":"Damsīs"},{"id":"DAMSIS_312E308N_S","name":"Damsīs","nameAr":"دمسيس","search":"Damsis","lng":31.224,"lat":30.8204,"type":"towns","region":"Misr_RE","cornuData":"Damsīs"},{"id":"BUTIJ_312E271N_S","name":"Būtīǧ","nameAr":"بوتيج","search":"Butij","lng":31.2268,"lat":27.109,"type":"towns","region":"Misr_RE","cornuData":"Būtīǧ"},{"id":"BASHARUD_312E312N_R","name":"al-Bašarūd","nameAr":"البشرود","search":"al-Basharud","lng":31.2334,"lat":31.2882,"type":"regions","region":"Misr_RE","cornuData":"al-Bašarūd"},{"id":"QAHIRA_312E300N_S","name":"al-Qāhiraŧ","nameAr":"القاهرة","search":"al-Qahira","lng":31.2417,"lat":30.0578,"type":"quarters","region":"Misr_RE","cornuData":"al-Qāhiraŧ"},{"id":"SHABRUWA_312E301N_S","name":"Šabruwā","nameAr":"شبروا","search":"Shabruwa, Shubru","lng":31.2422,"lat":30.1105,"type":"towns","region":"Misr_RE","cornuData":"Šabruwā"},{"id":"QASR_312E300N_S","name":"al-Qaṣr","nameAr":"القصر","search":"al-Qasr, Bab Alyun","lng":31.2425,"lat":30.0154,"type":"villages","region":"Misr_RE","cornuData":"al-Qaṣr"},{"id":"SAMANNUD_312E309N_R","name":"Samannūd","nameAr":"سمنود","search":"Samannud","lng":31.2451,"lat":30.9499,"type":"regions","region":"Misr_RE","cornuData":"Samannūd"},{"id":"FUSTAT_312E300N_S","name":"Fusṭāṭ","nameAr":"فسطاط","search":"Fustat","lng":31.2496,"lat":30.0433,"type":"metropoles","region":"Misr_RE","cornuData":"Fusṭāṭ"},{"id":"AWSIYA_312E311N_R","name":"al-Awsiyaŧ","nameAr":"الأوسية","search":"al-Awsiya","lng":31.2528,"lat":31.1918,"type":"regions","region":"Misr_RE","cornuData":"al-Awsiyaŧ"},{"id":"MANF_312E298N_S","name":"Manf","nameAr":"منف","search":"Manf, al-Aziziyya","lng":31.2565,"lat":29.8545,"type":"towns","region":"Misr_RE","cornuData":"Manf"},{"id":"SAHRAJAT_312E306N_S","name":"Ṣahraǧāt","nameAr":"صهرجات","search":"Sahrajat","lng":31.2667,"lat":30.6523,"type":"villages","region":"Misr_RE","cornuData":"Ṣahraǧāt"},{"id":"NAWASA_312E309N_R","name":"Nawasā","nameAr":"نوسا","search":"Nawasa","lng":31.2849,"lat":30.9787,"type":"regions","region":"Misr_RE","cornuData":"Nawasā"},{"id":"HULWAN_312E298N_S","name":"Ḥulwān","nameAr":"حلوان","search":"Hulwan","lng":31.2983,"lat":29.8602,"type":"towns","region":"Misr_RE","cornuData":"Ḥulwān"},{"id":"ATFIH_312E294N_S","name":"Aṭfīḥ","nameAr":"أطفيح","search":"Atfih","lng":31.2997,"lat":29.4335,"type":"towns","region":"Misr_RE","cornuData":"Aṭfīḥ"},{"id":"AWISH_313E310N_S","name":"Awīš","nameAr":"أويش","search":"Awish","lng":31.3051,"lat":31.0071,"type":"towns","region":"Misr_RE","cornuData":"Awīš"},{"id":"AYNSHAMS_313E301N_S","name":"ʿAyn Šams","nameAr":"عين شمس","search":"Ayn Shams","lng":31.3077,"lat":30.1292,"type":"towns","region":"Misr_RE","cornuData":"ʿAyn Šams"},{"id":"JABALMUQATTAM_313E300N_O","name":"Ǧabal Muqaṭṭam","nameAr":"جبل مقطم","search":"Jabal Muqattam","lng":31.3185,"lat":30.0137,"type":"sites","region":"Misr_RE","cornuData":"Ǧabal Muqaṭṭam"},{"id":"DAMIRA_313E311N_S","name":"Damīraŧ","nameAr":"دميرة","search":"Damira, Dumayra","lng":31.3504,"lat":31.1414,"type":"towns","region":"Misr_RE","cornuData":"Damīraŧ"},{"id":"MASHTUL_313E303N_S","name":"Maštūl","nameAr":"مشتول","search":"Mashtul","lng":31.3717,"lat":30.3652,"type":"towns","region":"Misr_RE","cornuData":"Maštūl"},{"id":"NATWAYA_313E306N_R","name":"Naṭwayaŧ","nameAr":"نطوية","search":"Natwaya, Natw al-Rumman","lng":31.3732,"lat":30.6984,"type":"regions","region":"Misr_RE","cornuData":"Naṭwayaŧ"},{"id":"JUBBAMIRA_313E301N_O","name":"Ǧubb ʿAmīraŧ","nameAr":"جب عميرة","search":"Jubb Amira","lng":31.3857,"lat":30.1607,"type":"sites","region":"Misr_RE","cornuData":"Ǧubb ʿAmīraŧ"},{"id":"QAW_314E269N_S","name":"Qaw","nameAr":"قو","search":"Qaw, Qahqawa, Qahqa","lng":31.475,"lat":26.9425,"type":"villages","region":"Misr_RE","cornuData":"Qaw"},{"id":"BASTA_314E305N_R","name":"Basṭaŧ","nameAr":"بسطة","search":"Basta","lng":31.4992,"lat":30.5674,"type":"regions","region":"Misr_RE","cornuData":"Basṭaŧ"},{"id":"TUMAYY_315E309N_R","name":"Ṭumayy","nameAr":"طمي","search":"Tumayy","lng":31.5106,"lat":30.9438,"type":"regions","region":"Misr_RE","cornuData":"Ṭumayy"},{"id":"GHAYFA_315E303N_S","name":"Ġayfā","nameAr":"غيفا","search":"Ghayfa","lng":31.5135,"lat":30.3824,"type":"towns","region":"Misr_RE","cornuData":"Ġayfā"},{"id":"TANA_315E310N_S","name":"Tanā","nameAr":"تنا","search":"Tana","lng":31.5419,"lat":31.0423,"type":"towns","region":"Misr_RE","cornuData":"Tanā"},{"id":"KHALIJSARDUS_315E311N_W","name":"Ḫalīǧ Sardūs","nameAr":"خليج سردوس","search":"Khalij Sardus","lng":31.5582,"lat":31.1197,"type":"waters","region":"Misr_RE","cornuData":"Ḫalīǧ Sardūs"},{"id":"BILBAYS_315E304N_S","name":"Bilbays","nameAr":"بلبيس","search":"Bilbays","lng":31.571,"lat":30.4178,"type":"capitals","region":"Misr_RE","cornuData":"Bilbays"},{"id":"HAWFSHARQI_315E305N_R","name":"al-Ḥawf al-Šarqī","nameAr":"الحوف الشرقي","search":"al-Hawf al-Sharqi","lng":31.575,"lat":30.5914,"type":"regions","region":"Misr_RE","cornuData":"al-Ḥawf al-Šarqī"},{"id":"BUWAYB_315E301N_S","name":"Buwayb","nameAr":"بويب","search":"Buwayb","lng":31.5798,"lat":30.1696,"type":"waystations","region":"Misr_RE","cornuData":"Buwayb"},{"id":"BALADNUBA_316E197N_R","name":"Balad al-Nūbaŧ","nameAr":"بلد النوبة","search":"Balad al-Nuba","lng":31.605,"lat":19.7255,"type":"regions","region":"Misr_RE","cornuData":"Balad al-Nūbaŧ"},{"id":"DAYR_316E265N_R","name":"al-Dayr","nameAr":"الدير","search":"al-Dayr, Dayr Bu Shanuda","lng":31.6062,"lat":26.5449,"type":"regions","region":"Misr_RE","cornuData":"al-Dayr"},{"id":"QURBAYT_316E307N_R","name":"Qurbayt","nameAr":"قربيت","search":"Qurbayt","lng":31.6245,"lat":30.7356,"type":"regions","region":"Misr_RE","cornuData":"Qurbayt"},{"id":"FAW_316E266N_S","name":"Fāw","nameAr":"فاو","search":"Faw","lng":31.649,"lat":26.6935,"type":"villages","region":"Misr_RE","cornuData":"Fāw"},{"id":"KHALIJDAQADUS_316E309N_W","name":"Ḫalīǧ Daqādūs","nameAr":"خليج دقادوس","search":"Khalij Daqadus","lng":31.6552,"lat":30.9384,"type":"waters","region":"Misr_RE","cornuData":"Ḫalīǧ Daqādūs"},{"id":"DAQAHLA_316E312N_S","name":"Daqahlaŧ","nameAr":"دقهلة","search":"Daqahla","lng":31.6629,"lat":31.2836,"type":"towns","region":"Misr_RE","cornuData":"Daqahlaŧ"},{"id":"ABBASIYYA_317E305N_S","name":"al-ʿAbbāsiyyaŧ","nameAr":"العباسية","search":"al-Abbasiyya","lng":31.7064,"lat":30.5365,"type":"towns","region":"Misr_RE","cornuData":"al-ʿAbbāsiyyaŧ"},{"id":"AKHMIM_317E265N_S","name":"Aḫmīm","nameAr":"أخميم","search":"Akhmim","lng":31.7296,"lat":26.563,"type":"towns","region":"Misr_RE","cornuData":"Aḫmīm"},{"id":"ATRABIYYA_317E307N_R","name":"Aṭrabiyyaŧ","nameAr":"أطربية","search":"Atrabiyya","lng":31.7463,"lat":30.7096,"type":"regions","region":"Misr_RE","cornuData":"Aṭrabiyyaŧ"},{"id":"DIMYAT_317E314N_S","name":"Dimyāṭ","nameAr":"دمياط","search":"Dimyat","lng":31.7913,"lat":31.4374,"type":"towns","region":"Misr_RE","cornuData":"Dimyāṭ"},{"id":"FAQUS_317E307N_S","name":"Fāqūs","nameAr":"فاقوس","search":"Faqus","lng":31.7958,"lat":30.7106,"type":"towns","region":"Misr_RE","cornuData":"Fāqūs"},{"id":"ABSHAYA_317E264N_S","name":"Abšāyaŧ","nameAr":"أبشاية","search":"Abshaya","lng":31.7988,"lat":26.4745,"type":"villages","region":"Misr_RE","cornuData":"Abšāyaŧ"},{"id":"KHALIJAMIRMUMININ_317E305N_W","name":"Ḫalīǧ Amīr al-Muʾminīn","nameAr":"خليج أمير المؤمنين","search":"Khalij Amir al-Muminin","lng":31.7992,"lat":30.5786,"type":"waters","region":"Misr_RE","cornuData":"Ḫalīǧ Amīr al-Muʾminīn"},{"id":"IBLIL_318E310N_R","name":"Iblīl","nameAr":"إبليل","search":"Iblil","lng":31.8311,"lat":31.0155,"type":"regions","region":"Misr_RE","cornuData":"Iblīl"},{"id":"SHATA_318E314N_S","name":"Šaṭā","nameAr":"شطا","search":"Shata","lng":31.8709,"lat":31.4056,"type":"towns","region":"Misr_RE","cornuData":"Šaṭā"},{"id":"SAN_318E309N_R","name":"Ṣān","nameAr":"صان","search":"San","lng":31.8727,"lat":30.9789,"type":"regions","region":"Misr_RE","cornuData":"Ṣān"},{"id":"BUNDUQA_319E300N_S","name":"Bunduqaŧ","nameAr":"بندقة","search":"Bunduqa, Manzil Ibn Bunduqa, Manzil Ibn Sadaqa","lng":31.935,"lat":30.0952,"type":"waystations","region":"Misr_RE","cornuData":"Bunduqaŧ"},{"id":"BUHAYRATINNIS_319E312N_W","name":"Buḥayraŧ Tinnīs","nameAr":"بحيرة تنيس","search":"Buhayra Tinnis","lng":31.9913,"lat":31.2594,"type":"waters","region":"Misr_RE","cornuData":"Buḥayraŧ Tinnīs"},{"id":"BULYANA_319E262N_S","name":"Bulyanā","nameAr":"بلينا","search":"Bulyana","lng":31.9959,"lat":26.2192,"type":"towns","region":"Misr_RE","cornuData":"Bulyanā"},{"id":"MANSAF_320E301N_S","name":"al-Manṣaf","nameAr":"المنصف","search":"al-Mansaf","lng":32.0537,"lat":30.187,"type":"villages","region":"Misr_RE","cornuData":"al-Manṣaf"},{"id":"TUNA_320E311N_S","name":"Tūnaŧ","nameAr":"تونة","search":"Tuna","lng":32.0824,"lat":31.1644,"type":"towns","region":"Misr_RE","cornuData":"Tūnaŧ"},{"id":"JURJIR_321E309N_S","name":"Ǧurǧīr","nameAr":"جرجير","search":"Jurjir","lng":32.1945,"lat":30.9137,"type":"towns","region":"Misr_RE","cornuData":"Ǧurǧīr"},{"id":"TINNIS_322E312N_S","name":"Tinnīs","nameAr":"تنيس","search":"Tinnis","lng":32.2276,"lat":31.2126,"type":"towns","region":"Misr_RE","cornuData":"Tinnīs"},{"id":"HU_322E260N_S","name":"Hū","nameAr":"هو","search":"Hu","lng":32.2985,"lat":26.0215,"type":"towns","region":"Misr_RE","cornuData":"Hū"},{"id":"QANTARA_323E308N_S","name":"al-Qanṭaraŧ","nameAr":"القنطرة","search":"al-Qantara","lng":32.3246,"lat":30.859,"type":"villages","region":"Misr_RE","cornuData":"al-Qanṭaraŧ"},{"id":"NILABYAD_323E150N_W","name":"al-Nīl al-Abyaḍ","nameAr":"النيل الأبيض","search":"al-Nil al-Abyad","lng":32.3556,"lat":15.0605,"type":"waters","region":"Misr_RE","cornuData":"al-Nīl al-Abyaḍ"},{"id":"AJARUD_323E300N_S","name":"ʿAǧarūd","nameAr":"عجرود","search":"Ajarud","lng":32.3804,"lat":30.0583,"type":"waystations","region":"Misr_RE","cornuData":"ʿAǧarūd"},{"id":"MAQURRA_324E180N_R","name":"Maqurraŧ","nameAr":"مقرة","search":"Maqurra, Muqurra","lng":32.4694,"lat":18.0609,"type":"regions","region":"Misr_RE","cornuData":"Maqurraŧ"},{"id":"ARMANT_325E256N_S","name":"Armant","nameAr":"أرمنت","search":"Armant","lng":32.5179,"lat":25.6402,"type":"towns","region":"Misr_RE","cornuData":"Armant"},{"id":"SUWAYS_325E299N_S","name":"Suways","nameAr":"سويس","search":"Suways","lng":32.544,"lat":29.9733,"type":"villages","region":"Misr_RE","cornuData":"Suways"},{"id":"ASNA_325E253N_S","name":"Asnā","nameAr":"أسنا","search":"Asna","lng":32.5516,"lat":25.3219,"type":"towns","region":"Misr_RE","cornuData":"Asnā"},{"id":"SUBA_325E154N_S","name":"Sūbaŧ","nameAr":"سوبة","search":"Suba","lng":32.5528,"lat":15.4807,"type":"villages","region":"Misr_RE","cornuData":"Sūbaŧ"},{"id":"QULZUM_325E300N_S","name":"al-Qulzum","nameAr":"القلزم","search":"al-Qulzum","lng":32.5568,"lat":30.0282,"type":"towns","region":"Misr_RE","cornuData":"al-Qulzum"},{"id":"FARAMA_325E310N_S","name":"al-Faramā","nameAr":"الفرما","search":"al-Farama","lng":32.5981,"lat":31.0228,"type":"capitals","region":"Misr_RE","cornuData":"al-Faramā"},